School Name,Primary Division,Sport Division,Subdivision,Membership Status,Primary Conference,Sport Conference,HBCU/Non-HBCU,Public/Private,Carnegie Classification,City/State ,Primary URL,Secondary URL,Latitude,Longitude,Primary Icon,Updated Latitude,Updated Longitude
Austin Peay State University,Division I,Division I,DI FCS,Active Member,Ohio Valley Conference,Ohio Valley Conference,Non-HBCU,Public,Master's Colleges & Universities,"Clarksville, TN",www.apsu.edu,www.apsu.edu/letsgopeay/,36.5277607,-87.3588703,1.favicon.ico.ico,36.5277607,-87.3588703
Frostburg State University,Division III,Division III,Non-DI,Reclass DIII to DII (B20.6.3.1),Mountain East Conference,Mountain East Conference,Non-HBCU,Public,Master's Colleges & Universities,"Frostburg, MD",www.frostburg.edu/,www.frostburgsports.com,39.6581425,-78.928357,2.favicon.ico.ico,39.6581425,-78.928357
West Virginia University,Division I,Division I,DI FBS,Active Member,Big 12 Conference,Big 12 Conference,Non-HBCU,Public,Research Universities,"Morgantown, WV",www.wvu.edu,www.wvusports.com,39.6296809,-79.9559437,3.favicon.ico.ico,39.6296809,-79.9559437
Fairmont State University,Division II,Division II,Non-DI,Active Member,Mountain East Conference,Mountain East Conference,Non-HBCU,Public,Master's Colleges & Universities,"Fairmont, WV",www.fairmontstate.edu,www.fightingfalcons.com,39.4850848,-80.1425781,4.2018%20Fairmont%20State%20Logo%20Mark_Maroon_0.png.png,39.4850848,-80.1425781
Alderson Broaddus University,Division II,Division II,Non-DI,Active Member,Great Midwest Athletic Conference,Great Midwest Athletic Conference,Non-HBCU,Private,Baccalaureate Colleges,"Philippi, WV",ab.edu,www.gobattlers.com,39.1523198,-80.0403578,5.ab2.png.png,39.1523198,-80.0403578
Davis & Elkins College,Division II,Division II,Non-DI,Active Member,Mountain East Conference,Mountain East Conference,Non-HBCU,Private,Baccalaureate Colleges,"Elkins, WV",www.dewv.edu,www.senatornation.com,38.925927,-79.8466552,6.favicon.ico.ico,38.925927,-79.8466552
West Virginia Wesleyan College,Division II,Division II,Non-DI,Active Member,Mountain East Conference,Mountain East Conference,Non-HBCU,Private,Master's Colleges & Universities,"Buckhannon, WV",wesleyanbobcats.com,www.wvwc.edu/,38.9939426,-80.2322698,7.site.png.png,38.9939426,-80.2322698
Salem University (West Virginia),Division II,Division II,Non-DI,Active Member,Independent,Independent,Non-HBCU,Private,Master's Colleges & Universities,"Salem, WV",www.SIUTigerPride.com,www.salemu.edu/,39.2828653,-80.5589856,8.site.png.png,39.2828653,-80.5589856
Glenville State College,Division II,Division II,Non-DI,Active Member,Mountain East Conference,Mountain East Conference,Non-HBCU,Public,Baccalaureate Colleges,"Glenville, WV",www.glenville.edu,www.gscpioneers.com/,38.9342573,-80.8376033,9.favicon.ico.ico,38.9342573,-80.8376033
University of Charleston (West Virginia),Division II,Division II,Non-DI,Active Member,Mountain East Conference,Mountain East Conference,Non-HBCU,Private,Research Universities,"Charleston, WV",www.ucgoldeneagles.com,www.ucwv.edu,38.3505995,-81.6332812,10.site.png.png,38.3505995,-81.6332812
Marietta College,Division III,Division III,Non-DI,Active Member,Ohio Athletic Conference,Ohio Athletic Conference,Non-HBCU,Private,Baccalaureate Colleges,"Marietta, OH",pioneers.marietta.edu/,www.marietta.edu/,39.4167742,-81.4548392,11.favicon.ico.ico,39.4167742,-81.4548392
Ohio Valley University,Division II,Division II,Non-DI,Active Member,Great Midwest Athletic Conference,Great Midwest Athletic Conference,Non-HBCU,Private,Baccalaureate Colleges,"Vienna, WV",fightingscots.ovu.edu/,www.ovu.edu/,39.3208866,-81.5512639,12.site.png.png,39.3208866,-81.5512639
West Virginia State University,Division II,Division II,Non-DI,Active Member,Mountain East Conference,Mountain East Conference,HBCU,Public,Baccalaureate Colleges,"Institute, WV",www.wvstateu.edu,www.wvsuyellowjackets.com,38.3836097,-81.7654665,13.favicon.ico.ico,38.3836097,-81.7654665
Berea College,Division III,Division III,Non-DI,Active Member,USA South Athletic Conference,USA South Athletic Conference,Non-HBCU,Private,Baccalaureate Colleges,"Berea, KY",www.berea.edu,www.bereaathletics.com,37.568694,-84.2963224,14.front_page_image1.png.png,37.568694,-84.2963224
Eastern Kentucky University,Division I,Division I,DI FCS,Active Member,Ohio Valley Conference,Ohio Valley Conference,Non-HBCU,Public,Master's Colleges & Universities,"Richmond, KY",www.eku.edu,www.ekusports.com,37.7478572,-84.2946539,15.favicon.ico.ico,37.7478572,-84.2946539
University of Kentucky,Division I,Division I,DI FBS,Active Member,Southeastern Conference,Southeastern Conference,Non-HBCU,Public,Research Universities,"Lexington, KY",www.ukathletics.com,www.uky.edu,38.0464066,-84.4970393,16.site.png.png,38.0464066,-84.4970393
Transylvania University,Division III,Division III,Non-DI,Active Member,Heartland Collegiate Athletic Conference,Heartland Collegiate Athletic Conference,Non-HBCU,Private,Baccalaureate Colleges,"Lexington, KY",www.transy.edu/,www.transysports.com,38.0464066,-84.4970393,17.favicon.ico.ico,38.0464066,-84.4970393
Kentucky State University,Division II,Division II,Non-DI,Active Member,Southern Intercol. Ath. Conf.,Southern Intercol. Ath. Conf.,HBCU,Public,Baccalaureate Colleges,"Frankfort, KY",www.ksuthorobreds.com,www.kysu.edu/,38.2009055,-84.8732836,18.site.png.png,38.2009055,-84.8732836
Marshall University,Division I,Division I,DI FBS,Active Member,Conference USA,Conference USA,Non-HBCU,Public,Research Universities,"Huntington, WV",www.herdzone.com,www.marshall.edu,38.4192496,-82.445154,,38.4192496,-82.445154
Savannah State University,Division I,Division I,DI FCS,Reclass DI to DII,Southern Intercol. Ath. Conf.,Southern Intercol. Ath. Conf.,HBCU,Public,Master's Colleges & Universities,"Savannah, GA",ssuathletics.com/,www.savannahstate.edu,32.0809263,-81.0911768,20.favicon.ico.ico,32.0809263,-81.0911768
Georgia Southwestern State University,Division II,Division II,Non-DI,Active Member,Peach Belt Conference,Peach Belt Conference,Non-HBCU,Public,Master's Colleges & Universities,"Americus, GA",www.gsw.edu,www.gswcanes.com,32.0723862,-84.2326876,21.favicon.ico.ico,32.0723862,-84.2326876
Kennesaw State University,Division I,Division I,DI FCS,Active Member,ASUN Conference,ASUN Conference,Non-HBCU,Public,Research Universities,"Kennesaw, GA",www.kennesaw.edu/,www.ksuowls.com,34.0234337,-84.6154897,22.favicon.ico.ico,34.0234337,-84.6154897
Berry College,Division III,Division III,Non-DI,Active Member,Southern Athletic Association,Southern Athletic Association,Non-HBCU,Private,Master's Colleges & Universities,"Mount Berry, GA",www.berry.edu,www.berryvikings.com,34.2798482,-85.1820652,23.favicon.ico.ico,34.2798482,-85.1820652
Auburn University,Division I,Division I,DI FBS,Active Member,Southeastern Conference,Southeastern Conference,Non-HBCU,Public,Research Universities,"Auburn, AL",www.auburn.edu,www.auburntigers.com,32.535699,-85.48677785023041,24.auburnuniversity_facebook.jpg.jpg,32.6550905,-85.5036435
Tuskegee University,Division II,Division II,Non-DI,Active Member,Southern Intercol. Ath. Conf.,Southern Intercol. Ath. Conf.,HBCU,Private,Master's Colleges & Universities,"Tuskegee, AL",www.goldentigersports.com/,www.tuskegee.edu,32.4240286,-85.6916195,25.favicon.ico.ico,32.4240286,-85.6916195
Huntingdon College,Division III,Division III,Non-DI,Active Member,USA South Athletic Conference,USA South Athletic Conference,Non-HBCU,Private,Baccalaureate Colleges,"Montgomery, AL",www.huntingdon.edu,www.huntingdonhawks.com,32.3669656,-86.3006485,26.cropped-hlogo-1-32x32.png.png,32.3669656,-86.3006485
Alabama State University,Division I,Division I,DI FCS,Active Member,Southwestern Athletic Conf.,Southwestern Athletic Conf.,HBCU,Public,Master's Colleges & Universities,"Montgomery, AL",www.alasu.edu,www.bamastatesports.com,32.3669656,-86.3006485,27.1920px-Alabama_State_University_seal.svg.png.png,32.3669656,-86.3006485
Jacksonville State University,Division I,Division I,DI FCS,Active Member,Ohio Valley Conference,Ohio Valley Conference,Non-HBCU,Public,Master's Colleges & Universities,"Jacksonville, AL",www.jsu.edu,www.jsugamecocksports.com,33.8269995,-85.78319335989826,28.favicon.ico.ico,33.8269995,-85.7831934
Alabama A&M University,Division I,Division I,DI FCS,Active Member,Southwestern Athletic Conf.,Southwestern Athletic Conf.,HBCU,Public,Master's Colleges & Universities,"Normal, AL",www.aamu.edu,www.aamusports.com/,34.7889792,-86.5719369,29.favicon.ico.ico,34.7889792,-86.5719369
University of Alabama in Huntsville,Division II,Division II,Non-DI,Active Member,Gulf South Conference,Gulf South Conference,Non-HBCU,Public,Research Universities,"Huntsville, AL",www.uah.edu,www.uahchargers.com,34.729847,-86.5859011,30.favicon.ico.ico,34.729847,-86.5859011
University of North Alabama,Division II,Division II,Non-DI,II Reclassifying to I (B20.5.2.1),ASUN Conference,ASUN Conference,Non-HBCU,Public,Master's Colleges & Universities,"Florence, AL",www.roarlions.com,www.una.edu/,34.79981,-87.677251,31.favicon.ico.ico,34.79981,-87.677251
University of North Carolina Wilmington,Division I,Division I,DI Subdivision,Active Member,Colonial Athletic Association,Colonial Athletic Association,Non-HBCU,Public,Research Universities,"Wilmington, NC",www.uncw.edu,www.uncwsports.com,34.2257282,-77.9447107,32.seahawk.ico.ico,34.2257282,-77.9447107
Erskine College,Division II,Division II,Non-DI,Active Member,Conference Carolinas,Conference Carolinas,Non-HBCU,Private,Baccalaureate Colleges,"Due West, SC",www.erskine.edu,www.erskinesports.com,34.3334469,-82.387902,33.favicon.ico.ico,34.3334469,-82.387902
Samford University,Division I,Division I,DI FCS,Active Member,Southern Conference,Southern Conference,Non-HBCU,Private,Research Universities,"Birmingham, AL",samfordsports.com,www.samford.edu/,33.5206824,-86.8024326,34.site.png.png,33.5206824,-86.8024326
University of Alabama at Birmingham,Division I,Division I,DI FBS,Active Member,Conference USA,Conference USA,Non-HBCU,Public,Research Universities,"Birmingham, AL",www.uab.edu,www.uabsports.com,33.5206824,-86.8024326,35.default_uab_fb_image-600.jpg.jpg,33.5206824,-86.8024326
Miles College,Division II,Division II,Non-DI,Active Member,Southern Intercol. Ath. Conf.,Southern Intercol. Ath. Conf.,HBCU,Private,Baccalaureate Colleges,"Fairfield, AL",milesgoldenbears.com/,www.miles.edu,33.4859402,-86.9119366,36.site.png.png,33.4859402,-86.9119366
University of Montevallo,Division II,Division II,Non-DI,Active Member,Gulf South Conference,Gulf South Conference,Non-HBCU,Public,Master's Colleges & Universities,"Montevallo, AL",www.montevallo.edu,www.montevallofalcons.com,33.1006746,-86.8641558,37.gates.jpg.jpg,33.1006746,-86.8641558
University of Alabama,Division I,Division I,DI FBS,Active Member,Southeastern Conference,Southeastern Conference,Non-HBCU,Public,Research Universities,"Tuscaloosa, AL",www.rolltide.com,www.ua.edu,33.2095614,-87.5675258,38.site.png.png,33.2095614,-87.5675258
Brevard College,Division III,Division II,Non-DI,"Active Member, Currently Reclassifying",USA South Athletic Conference,USA South Athletic Conference,Non-HBCU,Private,Baccalaureate Colleges,"Brevard, NC",www.bctornados.com,www.brevard.edu,35.2334472,-82.7342919,39.thumbnail_default.jpg.jpg,35.2334472,-82.7342919
Troy University,Division I,Division I,DI FBS,Active Member,Sun Belt Conference,Sun Belt Conference,Non-HBCU,Public,Master's Colleges & Universities,"Troy, AL",www.troy.edu,www.troytrojans.com,31.8087678,-85.969951,40.favicon.ico.ico,31.8087678,-85.969951
Auburn University at Montgomery,Division II,Division II,Non-DI,Active Member,Gulf South Conference,Gulf South Conference,Non-HBCU,Public,Master's Colleges & Universities,"Montgomery, AL",www.aum.edu,www.aumathletics.com,32.3669656,-86.3006485,41.aum_favicon_2019.jpg.jpg,32.3669656,-86.3006485
University of West Florida,Division II,Division II,Non-DI,Active Member,Gulf South Conference,Gulf South Conference,Non-HBCU,Public,Master's Colleges & Universities,"Pensacola, FL",www.goargos.com,www.uwf.edu/,30.421309,-87.2169149,42.favicon.ico.ico,30.421309,-87.2169149
Mississippi University for Women,Division III,Division III,Non-DI,Provisional Member,Independent,Independent,Non-HBCU,Public,Master's Colleges & Universities,"Columbus, MS",www.muw.edu,www.owlsathletics.com/landing/index,33.4956744,-88.4272627,43.favicon.ico.ico,33.4956744,-88.4272627
Mississippi State University,Division I,Division I,DI FBS,Active Member,Southeastern Conference,Southeastern Conference,Non-HBCU,Public,Research Universities,"Mississippi State, MS",www.hailstate.com,www.msstate.edu/,33.4549304,-88.7859584,44.site.png.png,33.4549304,-88.7859584
The University of Southern Mississippi,Division I,Division I,DI FBS,Active Member,Conference USA,Conference USA,Non-HBCU,Public,Research Universities,"Hattiesburg, MS",Southernmiss.com,www.usm.edu/,31.3271189,-89.2903392,45.site.png.png,31.3271189,-89.2903392
Jackson State University,Division I,Division I,DI FCS,Active Member,Southwestern Athletic Conf.,Southwestern Athletic Conf.,HBCU,Public,Research Universities,"Jackson, MS",www.jsums.edu/,www.jsutigers.com,32.2990384,-90.1847691,46.favicon.ico.ico,32.2990384,-90.1847691
Belhaven University,Division III,Division III,Non-DI,Active Member,American Southwest Conference,American Southwest Conference,Non-HBCU,Private,Master's Colleges & Universities,"Jackson, MS",blazers.belhaven.edu,www.belhaven.edu,32.2990384,-90.1847691,47.favicon.ico.ico,32.2990384,-90.1847691
Millsaps College,Division III,Division III,Non-DI,Active Member,Southern Athletic Association,Southern Athletic Association,Non-HBCU,Private,Baccalaureate Colleges,"Jackson, MS",www.gomajors.com,www.millsaps.edu,32.2990384,-90.1847691,48.site.png.png,32.2990384,-90.1847691
Mississippi College,Division II,Division II,Non-DI,Active Member,Gulf South Conference,Gulf South Conference,Non-HBCU,Private,Research Universities,"Clinton, MS",www.gochoctaws.com,www.mc.edu,32.3415342,-90.3217585,49.site.png.png,32.3415342,-90.3217585
Mississippi Valley State University,Division I,Division I,DI FCS,Active Member,Southwestern Athletic Conf.,Southwestern Athletic Conf.,HBCU,Public,Master's Colleges & Universities,"Itta Bena, MS",www.mvsu.edu,www.mvsusports.com,33.49512,-90.3198067,50.favicon_3.ico.ico,33.49512,-90.3198067
Delta State University,Division II,Division II,Non-DI,Active Member,Gulf South Conference,Gulf South Conference,Non-HBCU,Public,Master's Colleges & Universities,"Cleveland, MS",www.deltastate.edu,www.gostatesmen.com,33.7440023,-90.7248187,51.favicon.png.png,33.7440023,-90.7248187
Oakland City University,Division II,Division II,Non-DI,Active Member,Independent,Independent,Non-HBCU,Private,Baccalaureate Colleges,"Oakland City, IN",www.oak.edu/,www.oak.edu/athletics2/index.php,38.3386591,-87.3450132,52.favicon-16x16.png.png,38.3386591,-87.3450132
Union University,Division II,Division II,Non-DI,Active Member,Gulf South Conference,Gulf South Conference,Non-HBCU,Private,Research Universities,"Jackson, TN",www.uu.edu,www.uuathletics.com,35.6144446,-88.8177418,53.UU_Crest_Horizontal_Color-200.png.png,35.6144446,-88.8177418
Lane College,Division II,Division II,Non-DI,Active Member,Southern Intercol. Ath. Conf.,Southern Intercol. Ath. Conf.,HBCU,Private,Baccalaureate Colleges,"Jackson, TN",www.golcdragons.com/,www.lanecollege.edu,35.6144446,-88.8177418,54.site.png.png,35.6144446,-88.8177418
University of Tennessee at Martin,Division I,Division I,DI FCS,Active Member,Ohio Valley Conference,Ohio Valley Conference,Non-HBCU,Public,Master's Colleges & Universities,"Martin, TN",www.utm.edu/,www.utmsports.com,35.7730076,-86.2820081,55.favicon.ico.ico,35.7730076,-86.2820081
Eastern Mennonite University,Division III,Division III,Non-DI,Active Member,Old Dominion Athletic Conf.,Old Dominion Athletic Conf.,Non-HBCU,Private,Master's Colleges & Universities,"Harrisonburg, VA",www.emu.edu,www.emuroyals.com,38.4493315,-78.8688833,56.favicon.ico.ico,38.4396675,-78.8701365
Trevecca Nazarene University,Division II,Division II,Non-DI,Active Member,Great Midwest Athletic Conference,Great Midwest Athletic Conference,Non-HBCU,Private,Research Universities,"Nashville, TN",www.tnutrojans.com/,www.trevecca.edu,36.1622296,-86.7743531,57.thumbnail_default.jpg.jpg,36.1622296,-86.7743531
Vanderbilt University,Division I,Division I,DI FBS,Active Member,Southeastern Conference,Southeastern Conference,Non-HBCU,Private,Research Universities,"Nashville, TN",www.vanderbilt.edu/,www.vucommodores.com,36.1622296,-86.7743531,58.favicon.ico.ico,36.1622296,-86.7743531
Lipscomb University,Division I,Division I,DI Subdivision,Active Member,ASUN Conference,ASUN Conference,Non-HBCU,Private,Research Universities,"Nashville, TN",www.lipscomb.edu,www.lipscombsports.com,36.1622296,-86.7743531,59.favicon-16x16.png.png,36.1622296,-86.7743531
Middle Tennessee State University,Division I,Division I,DI FBS,Active Member,Conference USA,Conference USA,Non-HBCU,Public,Research Universities,"Murfreesboro, TN",www.goblueraiders.com,www.mtsu.edu/,35.845999,-86.3920452,60.site.png.png,35.845999,-86.3920452
University of the South,Division III,Division III,Non-DI,Active Member,Southern Athletic Association,Southern Athletic Association,Non-HBCU,Private,Baccalaureate Colleges,"Sewanee, TN",sewaneetigers.com/,www.sewanee.edu/,35.2031373,-85.9210899,61.thumbnail_default.jpg.jpg,35.2031373,-85.9210899
Tennessee Technological University,Division I,Division I,DI FCS,Active Member,Ohio Valley Conference,Ohio Valley Conference,Non-HBCU,Public,Research Universities,"Cookeville, TN",www.TTUsports.com/,www.tntech.edu/,36.1623886,-85.4997057,62.thumbnail_default.jpg.jpg,36.1623886,-85.4997057
Shorter University,Division II,Division II,Non-DI,Active Member,Gulf South Conference,Gulf South Conference,Non-HBCU,Private,Master's Colleges & Universities,"Rome, GA",www.goshorterhawks.com,www.shorter.edu,34.257038,-85.1646726,63.favicon.ico.ico,34.257038,-85.1646726
Lee University,Division II,Division II,Non-DI,Active Member,Gulf South Conference,Gulf South Conference,Non-HBCU,Private,Master's Colleges & Universities,"Cleveland, TN",www.goleeflames.com,www.leeuniversity.edu/,35.1595182,-84.8766115,64.favicon.ico.ico,35.1595182,-84.8766115
Covenant College,Division III,Division III,Non-DI,Active Member,USA South Athletic Conference,USA South Athletic Conference,Non-HBCU,Private,Baccalaureate Colleges,"Lookout Mountain, GA",athletics.covenant.edu/,www.covenant.edu,34.9775758,-85.3577363,,34.9775758,-85.3577363
Albany State University (Georgia),Division II,Division II,Non-DI,Active Member,Southern Intercol. Ath. Conf.,Southern Intercol. Ath. Conf.,HBCU,Public,Master's Colleges & Universities,"Albany, GA",www.asugoldenrams.com,www.asurams.edu,31.5782062,-84.1556809,66.site.png.png,31.5782062,-84.1556809
University of New Orleans,Division I,Division I,DI Subdivision,Active Member,Southland Conference,Southland Conference,Non-HBCU,Public,Research Universities,"New Orleans, LA",www.uno.edu,www.unoprivateers.com,29.9499323,-90.0701156,67.og-image.jpg.jpg,29.9499323,-90.0701156
Tulane University,Division I,Division I,DI FBS,Active Member,American Athletic Conference,American Athletic Conference,Non-HBCU,Private,Research Universities,"New Orleans, LA",www.tulane.edu,www.tulanegreenwave.com/index-main.html,29.9499323,-90.0701156,68.favicon_0.ico.ico,29.9499323,-90.0701156
Nicholls State University,Division I,Division I,DI FCS,Active Member,Southland Conference,Southland Conference,Non-HBCU,Public,Master's Colleges & Universities,"Thibodaux, LA",www.geauxcolonels.com,www.nicholls.edu/,29.7957633,-90.822871,69.favicon.ico.ico,29.7957633,-90.822871
Southeastern Louisiana University,Division I,Division I,DI FCS,Active Member,Southland Conference,Southland Conference,Non-HBCU,Public,Master's Colleges & Universities,"Hammond, LA",www.lionsports.net,www.selu.edu,41.5833658,-87.500043,70.site.png.png,30.5043583,-90.4611995
Louisiana State University,Division I,Division I,DI FBS,Active Member,Southeastern Conference,Southeastern Conference,Non-HBCU,Public,Research Universities,"Baton Rouge, LA",www.lsu.edu,www.lsusports.net,30.4459596,-91.18738,71.favicon.ico.ico,30.4459596,-91.18738
"Southern University, Baton Rouge",Division I,Division I,DI FCS,Active Member,Southwestern Athletic Conf.,Southwestern Athletic Conf.,HBCU,Public,Master's Colleges & Universities,"Baton Rouge, LA",www.gojagsports.com,www.subr.edu,30.4459596,-91.18738,72.site.png.png,30.4459596,-91.18738
Alcorn State University,Division I,Division I,DI FCS,Active Member,Southwestern Athletic Conf.,Southwestern Athletic Conf.,HBCU,Public,Master's Colleges & Universities,"Alcorn State, MS",www.alcorn.edu,www.alcornsports.com,31.8779382,-91.1392755,73.favicon.ico.ico,34.8734817,-88.5667345
University of Louisiana Monroe,Division I,Division I,DI FBS,Active Member,Sun Belt Conference,Sun Belt Conference,Non-HBCU,Public,Research Universities,"Monroe, LA",www.ulm.edu,www.ulmwarhawks.com,38.2722313,-90.1792484,74.favicon.ico.ico,32.5093109,-92.1193012
Louisiana Tech University,Division I,Division I,DI FBS,Active Member,Conference USA,Conference USA,Non-HBCU,Public,Research Universities,"Ruston, LA",www.latech.edu/,www.latechsports.com/,32.5232053,-92.637927,,32.5232053,-92.637927
Grambling State University,Division I,Division I,DI FCS,Active Member,Southwestern Athletic Conf.,Southwestern Athletic Conf.,HBCU,Public,Master's Colleges & Universities,"Grambling, LA",www.gram.edu,www.gsutigers.com,32.5276503,-92.7140403,76.steeple-touch-icon.png.png,32.5276503,-92.7140403
Centenary College (Louisiana),Division III,Division III,Non-DI,Active Member,Southern Collegiate Athletic Conference,Southern Collegiate Athletic Conference,Non-HBCU,Private,Baccalaureate Colleges,"Shreveport, LA",www.GoCentenary.com,www.centenary.edu,32.5221828,-93.7651944,77.thumbnail_default.jpg.jpg,32.5221828,-93.7651944
McNeese State University,Division I,Division I,DI FCS,Active Member,Southland Conference,Southland Conference,Non-HBCU,Public,Master's Colleges & Universities,"Lake Charles, LA",www.mcneese.edu/,www.mcneesesports.com,30.2265949,-93.2173759,78.fallback.jpg.jpg,30.2265949,-93.2173759
Northwestern State University,Division I,Division I,DI FCS,Active Member,Southland Conference,Southland Conference,Non-HBCU,Public,Master's Colleges & Universities,"Natchitoches, LA",www.nsudemons.com,www.nsula.edu,31.7606732,-93.0860209,79.favicon.ico.ico,31.7606732,-93.0860209
Louisiana College,Division III,Division III,Non-DI,Active Member,American Southwest Conference,American Southwest Conference,Non-HBCU,Private,Master's Colleges & Universities,"Pineville, LA",www.lacollege.edu,www.lcwildcats.net,36.7620301,-83.6949176,,31.3224044,-92.4343035
Morehead State University,Division I,Division I,DI FCS,Active Member,Ohio Valley Conference,Ohio Valley Conference,Non-HBCU,Public,Master's Colleges & Universities,"Morehead, KY",www.moreheadstate.edu,www.msueagles.com,38.1839705,-83.4326841,81.favicon.ico.ico,38.1839705,-83.4326841
Spring Hill College,Division II,Division II,Non-DI,Active Member,Southern Intercol. Ath. Conf.,Southern Intercol. Ath. Conf.,Non-HBCU,Private,Baccalaureate Colleges,"Mobile, AL",www.shc.edu,www.shcbadgers.com,30.6943566,-88.0430541,82.favicon.gif.gif,30.6943566,-88.0430541
University of South Alabama,Division I,Division I,DI FBS,Active Member,Sun Belt Conference,Sun Belt Conference,Non-HBCU,Public,Research Universities,"Mobile, AL",www.southalabama.edu,www.usajaguars.com,30.6943566,-88.0430541,83.favicon.ico.ico,30.6943566,-88.0430541
University of Memphis,Division I,Division I,DI FBS,Active Member,American Athletic Conference,American Athletic Conference,Non-HBCU,Public,Research Universities,"Memphis, TN",www.gotigersgo.com,www.memphis.edu/,35.1490215,-90.0516285,84.site.png.png,35.1490215,-90.0516285
Christian Brothers University,Division II,Division II,Non-DI,Active Member,Gulf South Conference,Gulf South Conference,Non-HBCU,Private,Master's Colleges & Universities,"Memphis, TN",www.CBUBucs.com,www.cbu.edu,35.1490215,-90.0516285,85.favicon.ico.ico,35.1490215,-90.0516285
Rhodes College,Division III,Division III,Non-DI,Active Member,Southern Athletic Association,Southern Athletic Association,Non-HBCU,Private,Baccalaureate Colleges,"Memphis, TN",www.rhodes.edu/,www.rhodeslynx.com,35.1490215,-90.0516285,86.favicon.ico.ico,35.1490215,-90.0516285
"University of Arkansas, Monticello",Division II,Division II,Non-DI,Active Member,Great American Conference,Great American Conference,Non-HBCU,Public,Master's Colleges & Universities,"Monticello, AR",www.uamont.edu,www.uamsports.com,33.6293427,-91.7912327,,33.6293427,-91.7912327
Harding University,Division II,Division II,Non-DI,Active Member,Great American Conference,Great American Conference,Non-HBCU,Private,Research Universities,"Searcy, AR",www.harding.edu,www.hardingsports.com,35.9018987,-92.7098744,,35.9018987,-92.7098744
Arkansas State University,Division I,Division I,DI FBS,Active Member,Sun Belt Conference,Sun Belt Conference,Non-HBCU,Public,Research Universities,"State University, AR",www.astate.edu,www.astateredwolves.com,41.7159186,44.7103158,89.icon.png.png,35.4747366,-93.4673459
"University of Arkansas, Pine Bluff",Division I,Division I,DI FCS,Active Member,Southwestern Athletic Conf.,Southwestern Athletic Conf.,HBCU,Public,Baccalaureate Colleges,"Pine Bluff, AR",www.uapb.edu,www.uapblionsroar.com,34.2157064,-92.0140402,90.404.aspx.ico,34.2157064,-92.0140402
Hendrix College,Division III,Division III,Non-DI,Active Member,Southern Athletic Association,Southern Athletic Association,Non-HBCU,Private,Baccalaureate Colleges,"Conway, AR",www.hendrix.edu,www.hendrixwarriors.com,-32.8842834,-60.726302,,35.065889,-92.362875
University of Central Arkansas,Division I,Division I,DI FCS,Active Member,Southland Conference,Southland Conference,Non-HBCU,Public,Research Universities,"Conway, AR",www.uca.edu,www.ucasports.com,-32.8842834,-60.726302,92.favicon.ico.ico,35.065889,-92.362875
University of Arkansas at Little Rock,Division I,Division I,DI Subdivision,Active Member,Sun Belt Conference,Sun Belt Conference,Non-HBCU,Public,Research Universities,"Little Rock, AR",www.ualr.edu,www.ualr.edu/athletics/home.html,34.7464809,-92.2895948,93.favicon.ico.ico,34.7464809,-92.2895948
Southern Arkansas University,Division II,Division II,Non-DI,Active Member,Great American Conference,Great American Conference,Non-HBCU,Public,Master's Colleges & Universities,"Magnolia, AR",www.muleriderathletics.com,www.saumag.edu,-38.3635737,-59.1502404,94.site.png.png,33.2670725,-93.2393341
Ouachita Baptist University,Division II,Division II,Non-DI,Active Member,Great American Conference,Great American Conference,Non-HBCU,Private,Baccalaureate Colleges,"ARKADELPHIA, AR",www.obu.edu,www.obutigers.com,34.1209292,-93.053784,95.interiorheader-1.jpg.jpg,34.1209292,-93.053784
Arkansas Tech University,Division II,Division II,Non-DI,Active Member,Great American Conference,Great American Conference,Non-HBCU,Public,Master's Colleges & Universities,"Russellville, AR",arkansastechsports.com/,www.atu.edu,35.2784173,-93.1337856,96.site.png.png,35.2784173,-93.1337856
University of the Ozarks (Arkansas),Division III,Division III,Non-DI,Active Member,American Southwest Conference,American Southwest Conference,Non-HBCU,Private,Baccalaureate Colleges,"Clarksville, AR",www.ozarks.edu/,www.uofoathletics.com/landing/index,35.4714724,-93.4665731,97.Campus-Spring.jpg.jpg,35.4714724,-93.4665731
"University of Arkansas, Fort Smith",Division II,Division II,Non-DI,Active Member,Lone Star Conference,Lone Star Conference,Non-HBCU,Public,Baccalaureate Colleges,"Fort Smith, AR",www.uafortsmithlions.com,www.uafs.edu/Home/Index,35.3872218,-94.4248983,98.favicon.ico.ico,35.3872218,-94.4248983
"University of Arkansas, Fayetteville",Division I,Division I,DI FBS,Active Member,Southeastern Conference,Southeastern Conference,Non-HBCU,Public,Research Universities,"Fayetteville, AR",www.arkansasrazorbacks.com,www.uark.edu,36.0625843,-94.1574328,99.ark-logo-left.png.png,36.0625843,-94.1574328
University of West Alabama,Division II,Division II,Non-DI,Active Member,Gulf South Conference,Gulf South Conference,Non-HBCU,Public,Master's Colleges & Universities,"Livingston, AL",www.uwa.edu/,www.uwaathletics.com,32.5843026,-88.1872474,100.favicon.png.png,32.5843026,-88.1872474
Southeast Missouri State University,Division I,Division I,DI FCS,Active Member,Ohio Valley Conference,Ohio Valley Conference,Non-HBCU,Public,Master's Colleges & Universities,"Cape Girardeau, MO",www.GoSoutheast.com,www.semo.edu/,37.3034933,-89.5230357,101.favicon.ico.ico,37.3034933,-89.5230357
Missouri University of Science and Technology,Division II,Division II,Non-DI,Active Member,Great Lakes Valley Conference,Great Lakes Valley Conference,Non-HBCU,Public,Research Universities,"Rolla, MO",www.minerathletics.com,www.mst.edu,37.9509324,-91.7708076,102.site.png.png,37.9509324,-91.7708076
Missouri State University,Division I,Division I,DI FCS,Active Member,Missouri Valley Conference,Missouri Valley Conference,Non-HBCU,Public,Research Universities,"Springfield, MO",www.missouristate.edu,www.missouristatebears.com,37.2166779,-93.2920373,103.favicon.ico.ico,37.2166779,-93.2920373
Drury University,Division II,Division II,Non-DI,Active Member,Great Lakes Valley Conference,Great Lakes Valley Conference,Non-HBCU,Private,Master's Colleges & Universities,"Springfield, MO",www.drury.edu,www.drurypanthers.com/,37.2166779,-93.2920373,,37.2166779,-93.2920373
Missouri Southern State University,Division II,Division II,Non-DI,Active Member,Mid-America Intercollegiate Athletics Association,Mid-America Intercollegiate Athletics Association,Non-HBCU,Public,Baccalaureate Colleges,"Joplin, MO",mssulions.com,www.mssu.edu/,37.08418,-94.51323,105.site.png.png,37.08418,-94.51323
Pittsburg State University,Division II,Division II,Non-DI,Active Member,Mid-America Intercollegiate Athletics Association,Mid-America Intercollegiate Athletics Association,Non-HBCU,Public,Master's Colleges & Universities,"Pittsburg, KS",www.pittstate.edu,www.pittstategorillas.com,37.4108841,-94.70496,106.404-error.html.ico,37.4108841,-94.70496
Rockhurst University,Division II,Division II,Non-DI,Active Member,Great Lakes Valley Conference,Great Lakes Valley Conference,Non-HBCU,Private,Master's Colleges & Universities,"Kansas City, MO",www.rockhurst.edu/,www.rockhursthawks.com/,39.100105,-94.5781416,107.favicon.ico.ico,39.100105,-94.5781416
University of Central Missouri,Division II,Division II,Non-DI,Active Member,Mid-America Intercollegiate Athletics Association,Mid-America Intercollegiate Athletics Association,Non-HBCU,Public,Master's Colleges & Universities,"Warrensburg, MO",www.ucmo.edu,www.ucmo.edu/athletic,38.7624373,-93.7409596,,38.7624373,-93.7409596
William Jewell College,Division II,Division II,Non-DI,Active Member,Great Lakes Valley Conference,Great Lakes Valley Conference,Non-HBCU,Private,Baccalaureate Colleges,"Liberty, MO",www.Jewellcardinals.com,www.jewell.edu,39.246479,-94.419079,109.favicon.ico.ico,39.246479,-94.419079
Missouri Western State University,Division II,Division II,Non-DI,Active Member,Mid-America Intercollegiate Athletics Association,Mid-America Intercollegiate Athletics Association,Non-HBCU,Public,Master's Colleges & Universities,"St. Joseph, MO",www.gogriffons.com,www.missouriwestern.edu,39.7686055,-94.8466322,110.favicon.ico.ico,39.7686055,-94.8466322
Northwest Missouri State University,Division II,Division II,Non-DI,Active Member,Mid-America Intercollegiate Athletics Association,Mid-America Intercollegiate Athletics Association,Non-HBCU,Public,Master's Colleges & Universities,"Maryville, MO",www.northwestbearcats.com,www.nwmissouri.edu/,40.3461017,-94.8724707,111.favicon.ico.ico,40.3461017,-94.8724707
Western Illinois University,Division I,Division I,DI FCS,Active Member,The Summit League,The Summit League,Non-HBCU,Public,Master's Colleges & Universities,"Macomb, IL",www.goleathernecks.com,www.wiu.edu,40.4588934,-90.6713939,112.favicon.ico.ico,40.4588934,-90.6713939
Quincy University,Division II,Division II,Non-DI,Active Member,Great Lakes Valley Conference,Great Lakes Valley Conference,Non-HBCU,Private,Baccalaureate Colleges,"Quincy, IL",quhawks.com,www.quincy.edu/,42.2528772,-71.0022705,113.site.png.png,39.9356016,-91.4098727
Westminster College (Missouri),Division III,Division III,Non-DI,Active Member,St. Louis Intercollegiate Athletic Conference,St. Louis Intercollegiate Athletic Conference,Non-HBCU,Private,Baccalaureate Colleges,"Fulton, MO",www.wcbluejays.com/landing/index,www.westminster-mo.edu/,38.8467082,-91.9479586,114.thumbnail_default.jpg.jpg,38.8467082,-91.9479586
"University of Missouri, Columbia",Division I,Division I,DI FBS,Active Member,Southeastern Conference,Southeastern Conference,Non-HBCU,Public,Research Universities,"Columbia, MO",www.missouri.edu,www.mutigers.com,38.951883,-92.3337366,115.favicon.ico.ico,38.951883,-92.3337366
Truman State University,Division II,Division II,Non-DI,Active Member,Great Lakes Valley Conference,Great Lakes Valley Conference,Non-HBCU,Public,Master's Colleges & Universities,"Kirksville, MO",www.truman.edu/,www.trumanbulldogs.com,40.1948848,-92.5833939,116.favicon.ico.ico,40.1948848,-92.5833939
Oklahoma Baptist University,Division II,Division II,Non-DI,Active Member,Great American Conference,Great American Conference,Non-HBCU,Private,Baccalaureate Colleges,"Shawnee, OK",www.obubison.com,www.okbu.edu,35.3272928,-96.9253004,,35.3272928,-96.9253004
East Carolina University,Division I,Division I,DI FBS,Active Member,American Athletic Conference,American Athletic Conference,Non-HBCU,Public,Research Universities,"Greenville, NC",www.ecu.edu,www.ecupirates.com,35.612661,-77.3663538,,35.612661,-77.3663538
Murray State University,Division I,Division I,DI FCS,Active Member,Ohio Valley Conference,Ohio Valley Conference,Non-HBCU,Public,Master's Colleges & Universities,"Murray, KY",www.goracers.com,www.murraystate.edu/,36.6103334,-88.314761,119.site.png.png,36.6103334,-88.314761
Kentucky Wesleyan College,Division II,Division II,Non-DI,Active Member,Great Midwest Athletic Conference,Great Midwest Athletic Conference,Non-HBCU,Private,Baccalaureate Colleges,"Owensboro, KY",www.kwc.edu,www.kwcpanthers.com,37.7742152,-87.1133304,120.blank.jpg.jpg,37.7742152,-87.1133304
Wabash College,Division III,Division III,Non-DI,Active Member,North Coast Athletic Conference,North Coast Athletic Conference,Non-HBCU,Private,Baccalaureate Colleges,"Crawfordsville, IN",www.wabash.edu/,www.wabash.edu/sports,40.0401991,-86.8990249,121.favicon.ico.ico,40.0401991,-86.8990249
Rose-Hulman Institute of Technology,Division III,Division III,Non-DI,Active Member,Heartland Collegiate Athletic Conference,Heartland Collegiate Athletic Conference,Non-HBCU,Private,Special Focus Schools,"Terre Haute, IN",www.rose-hulman.edu/,www.rose-hulman.edu/athletics,39.4667025,-87.4139119,122.favicon.ico.ico,39.4667025,-87.4139119
DePauw University,Division III,Division III,Non-DI,Active Member,North Coast Athletic Conference,North Coast Athletic Conference,Non-HBCU,Private,Baccalaureate Colleges,"Greencastle, IN",depauwtigers.com/landing/index,www.depauw.edu,39.6444898,-86.8647316,123.thumbnail_default.jpg.jpg,39.6444898,-86.8647316
Illinois Institute of Technology,Division III,Division III,Non-DI,Active Member,Northern Athletics Collegiate Conference,Northern Athletics Collegiate Conference,Non-HBCU,Private,Research Universities,"Chicago, IL",www.iit.edu,www.illinoistechathletics.com,41.8755616,-87.6244212,124.favicon.ico.ico,41.8755616,-87.6244212
University of Chicago,Division III,Division III,Non-DI,Active Member,University Athletic Association,Midwest Conference,Non-HBCU,Private,Research Universities,"Chicago, IL",www.athletics.uchicago.edu,www.uchicago.edu,41.8755616,-87.6244212,,41.8755616,-87.6244212
University of Illinois at Chicago,Division I,Division I,DI Subdivision,Active Member,Horizon League,Horizon League,Non-HBCU,Public,Research Universities,"Chicago, IL",www.uic.edu,www.uicflames.com,41.8755616,-87.6244212,126.favicon.ico.ico,41.8755616,-87.6244212
Northwestern University,Division I,Division I,DI FBS,Active Member,Big Ten Conference,Big Ten Conference,Non-HBCU,Private,Research Universities,"Evanston, IL",www.northwestern.edu/,www.nusports.com,42.0447388,-87.6930459,127.northwestern-thumb.jpg.jpg,42.0447388,-87.6930459
Concordia University Chicago,Division III,Division III,Non-DI,Active Member,Northern Athletics Collegiate Conference,Northern Athletics Collegiate Conference,Non-HBCU,Private,Master's Colleges & Universities,"River Forest, IL",www.CUCougars.com,www.cuchicago.edu,41.8978091,-87.8139483,128.site.png.png,41.8978091,-87.8139483
Dominican University (Illinois),Division III,Division III,Non-DI,Active Member,Northern Athletics Collegiate Conference,Northern Athletics Collegiate Conference,Non-HBCU,Private,Master's Colleges & Universities,"River Forest, IL",www.dom.edu,www.dustars.com,41.8978091,-87.8139483,129.favicon.ico.ico,41.8978091,-87.8139483
Lewis University,Division II,Division II,Non-DI,Active Member,Great Lakes Valley Conference,Great Lakes Valley Conference,Non-HBCU,Private,Master's Colleges & Universities,"Romeoville, IL",www.lewisflyers.com,www.lewisu.edu,41.6475306,-88.0895061,130.site.png.png,41.6475306,-88.0895061
Elmhurst College,Division III,Division III,Non-DI,Active Member,College Conference of Illinois & Wisconsin,College Conference of Illinois & Wisconsin,Non-HBCU,Private,Master's Colleges & Universities,"Elmhurst, IL",www.elmhurstbluejays.com/,www.public.elmhurst.edu/,40.7365804,-73.8783932,131.site.png.png,41.8994745,-87.9403418
Wheaton College (Illinois),Division III,Division III,Non-DI,Active Member,College Conference of Illinois & Wisconsin,College Conference of Illinois & Wisconsin,Non-HBCU,Private,Baccalaureate Colleges,"Wheaton, IL",athletics.wheaton.edu,www.wheaton.edu,41.8646959,-88.1101709,132.site.png.png,41.8646959,-88.1101709
Benedictine University (Illinois),Division III,Division III,Non-DI,Active Member,Northern Athletics Collegiate Conference,Northern Athletics Collegiate Conference,Non-HBCU,Private,Research Universities,"Lisle, IL",www.ben.edu,www.benueagles.com,45.2787444,0.5481384,133.favicon.ico.ico,41.801141,-88.0747875
University of Wisconsin-Parkside,Division II,Division II,Non-DI,Active Member,Great Lakes Intercollegiate Athletic Conference,Great Lakes Intercollegiate Athletic Conference,Non-HBCU,Public,Baccalaureate Colleges,"Kenosha, WI",www.parksiderangers.com,www.uwp.edu,42.5846773,-87.8212263,134.site.png.png,42.5846773,-87.8212263
Wisconsin Lutheran College,Division III,Division III,Non-DI,Active Member,Northern Athletics Collegiate Conference,Northern Athletics Collegiate Conference,Non-HBCU,Private,Baccalaureate Colleges,"Milwaukee, WI",www.wlc.edu,www.wlcsports.com/landing/index,43.0349931,-87.922497,135.favicon.ico.ico,43.0349931,-87.922497
Concordia University Wisconsin,Division III,Division III,Non-DI,Active Member,Northern Athletics Collegiate Conference,Northern Athletics Collegiate Conference,Non-HBCU,Private,Research Universities,"Mequon, WI",www.cuw.edu,www.cuwfalcons.com,43.2219088,-87.9822969,136.search.html.ico,43.2219088,-87.9822969
Lakeland University,Division III,Division III,Non-DI,Active Member,Northern Athletics Collegiate Conference,Northern Athletics Collegiate Conference,Non-HBCU,Private,Master's Colleges & Universities,"Plymouth, WI",lakelandmuskies.com/,www.lakeland.edu/,43.7486054,-87.977038,137.site.png.png,43.7486054,-87.977038
Saint Mary's University of Minnesota,Division III,Division III,Non-DI,Active Member,Minnesota Intercollegiate Athletic Conference,Minnesota Intercollegiate Athletic Conference,Non-HBCU,Private,Master's Colleges & Universities,"Winona, MN",www.saintmaryssports.com,www.smumn.edu,43.9582272,-91.7807784,138.site.png.png,43.9582272,-91.7807784
University of Wisconsin-La Crosse,Division III,Division III,Non-DI,Active Member,Wisconsin Intercollegiate Athletic Conference,Wisconsin Intercollegiate Athletic Conference,Non-HBCU,Public,Master's Colleges & Universities,"La Crosse, WI",www.uwlathletics.com,www.uwlax.edu,43.8014053,-91.2395429,139.favicon.ico.ico,43.8014053,-91.2395429
Eureka College,Division III,Division III,Non-DI,Active Member,St. Louis Intercollegiate Athletic Conference,St. Louis Intercollegiate Athletic Conference,Non-HBCU,Private,Baccalaureate Colleges,"Eureka, IL",www.eureka.edu,www.eurekareddevils.com,40.8020712,-124.1636729,140.Eureka.ico.ico,40.7213015,-89.2726708
Purdue University Northwest,Division II,Division II,Non-DI,Active Member,Great Lakes Intercollegiate Athletic Conference,Great Lakes Intercollegiate Athletic Conference,Non-HBCU,Public,Master's Colleges & Universities,"Hammond, IN",www.pnw.edu/,www.pnwathletics.com/,41.5833658,-87.500043,141.favicon.ico.ico,41.5833658,-87.500043
Chicago State University,Division I,Division I,DI Subdivision,Active Member,Western Athletic Conference,Western Athletic Conference,Non-HBCU,Public,Master's Colleges & Universities,"Chicago, IL",www.csu.edu,www.gocsucougars.com,41.8755616,-87.6244212,142.favicon.ico.ico,41.8755616,-87.6244212
North Park University,Division III,Division III,Non-DI,Active Member,College Conference of Illinois & Wisconsin,College Conference of Illinois & Wisconsin,Non-HBCU,Private,Master's Colleges & Universities,"Chicago, IL",www.northpark.edu/,www.northpark.edu/athletics/,41.8755616,-87.6244212,143.w-logo-blue-white-bg.png.ico,41.8755616,-87.6244212
North Central College,Division III,Division III,Non-DI,Active Member,College Conference of Illinois & Wisconsin,College Conference of Illinois & Wisconsin,Non-HBCU,Private,Master's Colleges & Universities,"Naperville, IL",northcentralcardinals.com,www.noctrl.edu/,41.7728699,-88.1479278,144.site.png.png,41.7728699,-88.1479278
Aurora University,Division III,Division III,Non-DI,Active Member,Northern Athletics Collegiate Conference,Northern Athletics Collegiate Conference,Non-HBCU,Private,Research Universities,"Aurora, IL",athletics.aurora.edu,www.aurora.edu,16.0,121.75,145.site.png.png,41.7571701,-88.3147539
Rockford University,Division III,Division III,Non-DI,Active Member,Northern Athletics Collegiate Conference,Northern Athletics Collegiate Conference,Non-HBCU,Private,Master's Colleges & Universities,"Rockford, IL",www.goregents.com,www.rockford.edu,42.2713945,-89.093966,,42.2713945,-89.093966
Eastern Illinois University,Division I,Division I,DI FCS,Active Member,Ohio Valley Conference,Ohio Valley Conference,Non-HBCU,Public,Master's Colleges & Universities,"Charleston, IL",www.eiu.edu,www.eiupanthers.com,32.7876012,-79.9402728,147.favicon.ico.ico,39.4961458,-88.1761521
University of Illinois Urbana-Champaign,Division I,Division I,DI FBS,Active Member,Big Ten Conference,Big Ten Conference,Non-HBCU,Public,Research Universities,"Champaign, IL",www.fightingillini.com,www.illinois.edu,40.1164205,-88.2433829,148.illinois_logo.jpg.jpg,40.1164205,-88.2433829
Millikin University,Division III,Division III,Non-DI,Active Member,College Conference of Illinois & Wisconsin,College Conference of Illinois & Wisconsin,Non-HBCU,Private,Baccalaureate Colleges,"Decatur, IL",athletics.millikin.edu,www.millikin.edu/,39.8454163,-88.9524151,149.site.png.png,39.8454163,-88.9524151
Southern Illinois University at Carbondale,Division I,Division I,DI FCS,Active Member,Missouri Valley Conference,Missouri Valley Conference,Non-HBCU,Public,Research Universities,"Carbondale, IL",www.siuc.edu/,www.siusalukis.com/,37.7274692,-89.216655,150.favicon.ico.ico,37.7274692,-89.216655
McKendree University,Division II,Division II,Non-DI,Active Member,Great Lakes Valley Conference,Great Lakes Valley Conference,Non-HBCU,Private,Master's Colleges & Universities,"Lebanon, IL",www.mckbearcats.com,www.mckendree.edu,33.8750629,35.843409,151.favicon.ico.ico,38.6039375,-89.8073195
Southern Illinois University Edwardsville,Division I,Division I,DI Subdivision,Active Member,Ohio Valley Conference,Ohio Valley Conference,Non-HBCU,Public,Research Universities,"Edwardsville, IL",www.siue.edu,www.siuecougars.com,38.8114364,-89.953157,152.favicon.ico.ico,38.8114364,-89.953157
Principia College,Division III,Division III,Non-DI,Active Member,St. Louis Intercollegiate Athletic Conference,St. Louis Intercollegiate Athletic Conference,Non-HBCU,Private,Baccalaureate Colleges,"Elsah, IL",www.principiaathletics.com,www.principiacollege.edu,38.9561594,-90.3598364,153.favicon.ico.ico,38.9561594,-90.3598364
Blackburn College,Division III,Division III,Non-DI,Active Member,St. Louis Intercollegiate Athletic Conference,St. Louis Intercollegiate Athletic Conference,Non-HBCU,Private,Baccalaureate Colleges,"Carlinville, IL",blackburnbeavers.com,www.blackburn.edu,39.2797699,-89.8817662,154.thumbnail_default.jpg.jpg,39.2797699,-89.8817662
MacMurray College,Division III,Division III,Non-DI,Active Member,St. Louis Intercollegiate Athletic Conference,St. Louis Intercollegiate Athletic Conference,Non-HBCU,Private,Baccalaureate Colleges,"Jacksonville, IL",www.mac.edu/,www.mac.edu/athletics,30.3321838,-81.655651,155.favicon.ico.ico,39.7343037,-90.2288356
Illinois College,Division III,Division III,Non-DI,Active Member,Midwest Conference,Midwest Conference,Non-HBCU,Private,Baccalaureate Colleges,"Jacksonville, IL",www.ic.edu,www.illinoiscollegeathletics.com/,30.3321838,-81.655651,156.ichome.jpg.jpg,39.7343037,-90.2288356
Monmouth College (Illinois),Division III,Division III,Non-DI,Active Member,Midwest Conference,Midwest Conference,Non-HBCU,Private,Baccalaureate Colleges,"Monmouth, IL",www.monm.edu/,www.monm.edu/sportsinfo,51.8098882,-2.7160441,157.favicon.ico.ico,40.9127103,-90.6472477
Knox College,Division III,Division III,Non-DI,Active Member,Midwest Conference,Midwest Conference,Non-HBCU,Private,Baccalaureate Colleges,"Galesburg, IL",prairiefire.knox.edu,www.knox.edu,40.9479779,-90.3705842,158.site.png.png,40.9479779,-90.3705842
Augustana College (Illinois),Division III,Division III,Non-DI,Active Member,College Conference of Illinois & Wisconsin,College Conference of Illinois & Wisconsin,Non-HBCU,Private,Baccalaureate Colleges,"Rock Island, IL",www.athletics.augustana.edu/,www.augustana.edu,41.4411786,-90.5766144,159.site.png.png,41.4411786,-90.5766144
University of Dubuque,Division III,Division III,Non-DI,Active Member,American Rivers Conference,American Rivers Conference,Non-HBCU,Private,Master's Colleges & Universities,"Dubuque, IA",www.dbq.edu,www.dbq.edu/Athletics/,42.5006217,-90.6647967,160.favicon.ico.ico,42.5006217,-90.6647967
Upper Iowa University,Division II,Division II,Non-DI,Active Member,Northern Sun Intercollegiate Conference,Northern Sun Intercollegiate Conference,Non-HBCU,Private,Master's Colleges & Universities,"Fayette, IA",www.uiu.edu/,www.upperiowaathletics.com,42.8420766,-91.850265,161.cropped-favicon-32x32.png.ico,42.8420766,-91.850265
Wartburg College,Division III,Division III,Non-DI,Active Member,American Rivers Conference,American Rivers Conference,Non-HBCU,Private,Baccalaureate Colleges,"Waverly, IA",www.go-knights.net,www.wartburg.edu,42.7258142,-92.4754626,162.site.png.png,42.7258142,-92.4754626
Greenville University,Division III,Division III,Non-DI,Active Member,St. Louis Intercollegiate Athletic Conference,St. Louis Intercollegiate Athletic Conference,Non-HBCU,Private,Master's Colleges & Universities,"Greenville, IL",www.greenville.edu,www.greenville.edu/athletics,34.851354,-82.3984882,163.favicon.ico.ico,38.8922687,-89.4131356
"Indiana University, Bloomington",Division I,Division I,DI FBS,Active Member,Big Ten Conference,Big Ten Conference,Non-HBCU,Public,Research Universities,"Bloomington, IN",iuhoosiers.com/,www.iub.edu/,39.1670396,-86.5342881,164.site.png.png,39.1670396,-86.5342881
Hanover College,Division III,Division III,Non-DI,Active Member,Heartland Collegiate Athletic Conference,Heartland Collegiate Athletic Conference,Non-HBCU,Private,Baccalaureate Colleges,"Hanover, IN",www.hanover.edu,www.hanover.edu/sports/,38.7142263,-85.4735707,165.favicon.ico.ico,38.7142263,-85.4735707
University of Evansville,Division I,Division I,DI Subdivision,Active Member,Missouri Valley Conference,Missouri Valley Conference,Non-HBCU,Private,Master's Colleges & Universities,"Evansville, IN",www.evansville.edu,www.gopurpleaces.com,37.9747645,-87.5558483,166.favicon.ico.ico,37.9747645,-87.5558483
University of Southern Indiana,Division II,Division II,Non-DI,Active Member,Great Lakes Valley Conference,Great Lakes Valley Conference,Non-HBCU,Public,Master's Colleges & Universities,"Evansville, IN",www.gousieagles.com/,www.usi.edu/,37.9747645,-87.5558483,167.favicon.ico.ico,37.9747645,-87.5558483
Butler University,Division I,Division I,DI FCS,Active Member,Big East Conference,Big East Conference,Non-HBCU,Private,Master's Colleges & Universities,"Indianapolis, IN",www.butler.edu,www.butlersports.com,39.7683331,-86.1583502,168.favicon.ico.ico,39.7683331,-86.1583502
Northern Illinois University,Division I,Division I,DI FBS,Active Member,Mid-American Conference,Mid-American Conference,Non-HBCU,Public,Research Universities,"De Kalb, IL",www.niu.edu,www.niuhuskies.com,33.499046,-94.60321951655251,169.favicon.ico.ico,41.935768,-88.749078
Saginaw Valley State University,Division II,Division II,Non-DI,Active Member,Great Lakes Intercollegiate Athletic Conference,Great Lakes Intercollegiate Athletic Conference,Non-HBCU,Public,Master's Colleges & Universities,"University Center, MI",www.svsu.edu,www.svsucardinals.com,39.05974295,-77.44687868918805,,42.7377803,-84.5542336
Central Michigan University,Division I,Division I,DI FBS,Active Member,Mid-American Conference,Mid-American Conference,Non-HBCU,Public,Research Universities,"Mount Pleasant, MI",www.cmich.edu,www.cmuchippewas.com,43.597646,-84.7668495,171.60.png.png,43.597646,-84.7668495
Alma College,Division III,Division III,Non-DI,Active Member,Michigan Intercol. Ath. Assn.,Michigan Intercol. Ath. Assn.,Non-HBCU,Private,Baccalaureate Colleges,"Alma, MI",www.alma.edu,www.goalmascots.com,43.37892,-84.659727,172.favicon.ico.ico,43.37892,-84.659727
Calvin University,Division III,Division III,Non-DI,Active Member,Michigan Intercol. Ath. Assn.,Michigan Intercol. Ath. Assn.,Non-HBCU,Private,Master's Colleges & Universities,"Grand Rapids, MI",calvinknights.com,www.calvin.edu,42.9632405,-85.6678639,,42.9632405,-85.6678639
Davenport University,Division II,Division II,Non-DI,Active Member,Great Lakes Intercollegiate Athletic Conference,Great Lakes Intercollegiate Athletic Conference,Non-HBCU,Private,Master's Colleges & Universities,"Grand Rapids, MI",dupanthers.com/,www.davenport.edu/,42.9632405,-85.6678639,174.site.png.png,42.9632405,-85.6678639
Hope College,Division III,Division III,Non-DI,Active Member,Michigan Intercol. Ath. Assn.,Michigan Intercol. Ath. Assn.,Non-HBCU,Private,Baccalaureate Colleges,"Holland, MI",athletics.hope.edu,www.hope.edu,42.7876022,-86.1090828,,42.7876022,-86.1090828
Northwood University,Division II,Division II,Non-DI,Active Member,Great Lakes Intercollegiate Athletic Conference,Great Lakes Intercollegiate Athletic Conference,Non-HBCU,Private,Special Focus Schools,"Midland, MI",gonorthwood.com,www.northwood.edu,31.9973662,-102.0779482,,43.6155825,-84.2472117
Wayne State University (Michigan),Division II,Division II,Non-DI,Active Member,Great Lakes Intercollegiate Athletic Conference,Great Lakes Intercollegiate Athletic Conference,Non-HBCU,Public,Research Universities,"Detroit, MI",www.wayne.edu,www.wsuathletics.com,42.3315509,-83.0466403,177.favicon.ico.ico,42.3315509,-83.0466403
Eastern Michigan University,Division I,Division I,DI FBS,Active Member,Mid-American Conference,Mid-American Conference,Non-HBCU,Public,Research Universities,"Ypsilanti, MI",www.emich.edu/,www.emueagles.com,42.24253,-83.6171426940706,178.favicon.ico.ico,42.24253,-83.6171427
University of Michigan,Division I,Division I,DI FBS,Active Member,Big Ten Conference,Big Ten Conference,Non-HBCU,Public,Research Universities,"Ann Arbor, MI",mgoblue.com,www.umich.edu/,42.2681569,-83.7312291,179.site.png.png,42.2681569,-83.7312291
Adrian College,Division III,Division III,Non-DI,Active Member,Michigan Intercol. Ath. Assn.,Michigan Intercol. Ath. Assn.,Non-HBCU,Private,Baccalaureate Colleges,"Adrian, MI",www.adrian.edu,www.adrianbulldogs.com,41.8975152,-84.0373054,,41.8975152,-84.0373054
Hillsdale College,Division II,Division II,Non-DI,Active Member,Great Midwest Athletic Conference,Great Midwest Athletic Conference,Non-HBCU,Private,Baccalaureate Colleges,"Hillsdale, MI",www.hillsdale.edu,www.hillsdale.edu/athletics,41.8779105,-84.5984396,181.favicon.ico.ico,41.8779105,-84.5984396
Albion College,Division III,Division III,Non-DI,Active Member,Michigan Intercol. Ath. Assn.,Michigan Intercol. Ath. Assn.,Non-HBCU,Private,Baccalaureate Colleges,"Albion, MI",www.albion.edu,www.gobrits.com,42.243097,-84.7530304,182.favicon.ico.ico,42.243097,-84.7530304
Olivet College,Division III,Division III,Non-DI,Active Member,Michigan Intercol. Ath. Assn.,Michigan Intercol. Ath. Assn.,Non-HBCU,Private,Baccalaureate Colleges,"Olivet, MI",www.olivetcollege.edu/,www.olivetcomets.com,42.4414273,-84.9241542,183.favicon.ico.ico,42.4414273,-84.9241542
Kalamazoo College,Division III,Division III,Non-DI,Active Member,Michigan Intercol. Ath. Assn.,Michigan Intercol. Ath. Assn.,Non-HBCU,Private,Baccalaureate Colleges,"Kalamazoo, MI",hornets.kzoo.edu/landing/index,www.kzoo.edu/,42.291707,-85.5872286,,42.291707,-85.5872286
Western Michigan University,Division I,Division I,DI FBS,Active Member,Mid-American Conference,Mid-American Conference,Non-HBCU,Public,Research Universities,"Kalamazoo, MI",www.wmich.edu,www.wmubroncos.com,42.291707,-85.5872286,185.apple-touch-icon-precomposed.png.png,42.291707,-85.5872286
University of Notre Dame,Division I,Division I,DI FBS,Active Member,Atlantic Coast Conference,Atlantic Coast Conference,Non-HBCU,Private,Research Universities,"Notre Dame, IN",www.nd.edu,www.und.com,41.704567749999995,-86.23822026017265,186.webclip-1024.png.png,41.7045678,-86.2382203
Valparaiso University,Division I,Division I,DI FCS,Active Member,Missouri Valley Conference,Missouri Valley Conference,Non-HBCU,Private,Research Universities,"Valparaiso, IN",www.valpo.edu/,www.valpoathletics.com,41.4730948,-87.0611412,187.favicon.ico.ico,41.4730948,-87.0611412
Purdue University,Division I,Division I,DI FBS,Active Member,Big Ten Conference,Big Ten Conference,Non-HBCU,Public,Research Universities,"West Lafayette, IN",www.purdue.edu,www.purduesports.com,40.4258686,-86.9080655,,40.4258686,-86.9080655
Webster University,Division III,Division III,Non-DI,Active Member,St. Louis Intercollegiate Athletic Conference,St. Louis Intercollegiate Athletic Conference,Non-HBCU,Private,Master's Colleges & Universities,"St. Louis, MO",www.webster.edu/,www.websterathletics.com,38.6268039,-90.1994097,189.websterlogo_square.jpg.jpg,38.6264178,-90.1998378
Northland College,Division III,Division III,Non-DI,Active Member,Upper Midwest Athletic Conference,Upper Midwest Athletic Conference,Non-HBCU,Private,Baccalaureate Colleges,"Ashland, WI",www.northland.edu/,www.northlandcollegesports.com,46.2062319,-90.6802594,190.favicon.ico.ico,46.2062319,-90.6802594
St. Cloud State University,Division II,Division II,Non-DI,Active Member,Northern Sun Intercollegiate Conference,Northern Sun Intercollegiate Conference,Non-HBCU,Public,Master's Colleges & Universities,"St. Cloud, MN",www.stcloudstate.edu/,www.stcloudstate.edu/athletics,45.5616075,-94.1642004,,45.5616075,-94.1642004
Saint John's University (Minnesota),Division III,Division III,Non-DI,Active Member,Minnesota Intercollegiate Athletic Conference,Minnesota Intercollegiate Athletic Conference,Non-HBCU,Private,Baccalaureate Colleges,"Collegeville, MN",www.csbsju.edu,www.gojohnnies.com,45.5944117,-94.3622868,192.favicon.ico.ico,45.5944117,-94.3622868
"University of Minnesota, Morris",Division III,Division III,Non-DI,Active Member,Upper Midwest Athletic Conference,Upper Midwest Athletic Conference,Non-HBCU,Public,Baccalaureate Colleges,"Morris, MN",ummcougars.org,www.morris.umn.edu/,45.586072,-95.913941,,45.586072,-95.913941
"University of Minnesota, Crookston",Division II,Division II,Non-DI,Active Member,Northern Sun Intercollegiate Conference,Northern Sun Intercollegiate Conference,Non-HBCU,Public,Baccalaureate Colleges,"Crookston, MN",www.goldeneaglesports.com/,www.umcrookston.edu,47.7739988,-96.6081167,194.site.png.png,47.7739988,-96.6081167
Bemidji State University,Division II,Division II,Non-DI,Active Member,Northern Sun Intercollegiate Conference,Northern Sun Intercollegiate Conference,Non-HBCU,Public,Master's Colleges & Universities,"Bemidji, MN",www.bemidjistate.edu,www.bsubeavers.com,47.4785418,-94.8907869,195.BSULogo-150x150.png.png,47.4785418,-94.8907869
Finlandia University,Division III,Division III,Non-DI,Active Member,American Collegiate Athletic Association,Wisconsin Intercollegiate Athletic Conference,Non-HBCU,Private,Baccalaureate Colleges,"Hancock, MI",www.finlandia.edu,www.fulions.com,40.3941712,-91.1458063,,47.126871,-88.580956
University of Minnesota Duluth,Division II,Division II,Non-DI,Active Member,Northern Sun Intercollegiate Conference,Northern Sun Intercollegiate Conference,Non-HBCU,Public,Master's Colleges & Universities,"Duluth, MN",www.d.umn.edu/,www.umdbulldogs.com,46.7729322,-92.1251218,197.umd-favicon.png.png,46.7729322,-92.1251218
The College of St. Scholastica,Division III,Division III,Non-DI,Active Member,Upper Midwest Athletic Conference,Upper Midwest Athletic Conference,Non-HBCU,Private,Research Universities,"Duluth, MN",www.css.edu/,www.csssaints.com,46.7729322,-92.1251218,198.favicon.ico.ico,46.7729322,-92.1251218
University of Wisconsin-Superior,Division III,Division III,Non-DI,Active Member,Upper Midwest Athletic Conference,Upper Midwest Athletic Conference,Non-HBCU,Public,Baccalaureate Colleges,"Superior, WI",www.uwsuper.edu/,www.uwsyellowjackets.com,46.7207737,-92.1040796,199.favicon.ico.ico,46.7207737,-92.1040796
University of Wisconsin-Stout,Division III,Division III,Non-DI,Active Member,Wisconsin Intercollegiate Athletic Conference,Wisconsin Intercollegiate Athletic Conference,Non-HBCU,Public,Master's Colleges & Universities,"Menomonie, WI",athletics.uwstout.edu,www.uwstout.edu/,44.8755183,-91.9193422,200.site.png.png,44.8755183,-91.9193422
Maranatha Baptist University,Division III,Division III,Non-DI,Active Member,Independent,Independent,Non-HBCU,Private,Baccalaureate Colleges,"Watertown, WI",www.mbu.edu/,www.mbu.edu/athletics,43.1948481,-88.7286352,201.favicon.ico.ico,43.1948481,-88.7286352
Ripon College,Division III,Division III,Non-DI,Active Member,Midwest Conference,Midwest Conference,Non-HBCU,Private,Baccalaureate Colleges,"Ripon, WI",www.ripon.edu,www.ripon.edu/athletics,43.8424502,-88.8372972,202.favicon.ico.ico,43.8424502,-88.8372972
St. Norbert College,Division III,Division III,Non-DI,Active Member,Midwest Conference,Midwest Conference,Non-HBCU,Private,Baccalaureate Colleges,"De Pere, WI",www.snc.edu,www.snc.edu/athletics,44.4487476,-88.0601086,203.favicon.ico.ico,44.4487476,-88.0601086
Lawrence University,Division III,Division III,Non-DI,Active Member,Midwest Conference,Midwest Conference,Non-HBCU,Private,Baccalaureate Colleges,"Appleton, WI",www.lawrence.edu/,www.lawrence.edu/athletics,44.2611337,-88.4067604,204.favicon.ico.ico,44.2611337,-88.4067604
Carthage College,Division III,Division III,Non-DI,Active Member,College Conference of Illinois & Wisconsin,College Conference of Illinois & Wisconsin,Non-HBCU,Private,Baccalaureate Colleges,"Kenosha, WI",athletics.carthage.edu,www.carthage.edu,42.5846773,-87.8212263,205.site.png.png,42.5846773,-87.8212263
University of Wisconsin-Milwaukee,Division I,Division I,DI Subdivision,Active Member,Horizon League,Horizon League,Non-HBCU,Public,Research Universities,"Milwaukee, WI",www.mkepanthers.com,www4.uwm.edu,43.0349931,-87.922497,206.favicon.ico.ico,43.0349931,-87.922497
Milwaukee School of Engineering,Division III,Division III,Non-DI,Active Member,Northern Athletics Collegiate Conference,Northern Athletics Collegiate Conference,Non-HBCU,Private,Master's Colleges & Universities,"Milwaukee, WI",go-raiders.com,www.msoe.edu/,43.0349931,-87.922497,207.thumbnail_default.jpg.jpg,43.0349931,-87.922497
Carroll University (Wisconsin),Division III,Division III,Non-DI,Active Member,College Conference of Illinois & Wisconsin,College Conference of Illinois & Wisconsin,Non-HBCU,Private,Master's Colleges & Universities,"Waukesha, WI",www.carrollu.edu,www.gopios.com,43.0116784,-88.2314813,208.favicon.ico.ico,43.0116784,-88.2314813
University of Wisconsin-Whitewater,Division III,Division III,Non-DI,Active Member,Wisconsin Intercollegiate Athletic Conference,Wisconsin Intercollegiate Athletic Conference,Non-HBCU,Public,Master's Colleges & Universities,"Whitewater, WI",www.uww.edu/,www.uwwsports.com,42.8336422,-88.7292679,209.favicon.ico.ico,42.8336422,-88.7292679
Beloit College,Division III,Division III,Non-DI,Active Member,Midwest Conference,Midwest Conference,Non-HBCU,Private,Baccalaureate Colleges,"Beloit, WI",www.beloit.edu,www.beloit.edu/bucs/,42.5083272,-89.031784,210.6087_Beloit-Masked2ndDay__AlexGarcia_075.rev.1598035055.jpg.jpg,42.5083272,-89.031784
Edgewood College,Division III,Division III,Non-DI,Active Member,Northern Athletics Collegiate Conference,Northern Athletics Collegiate Conference,Non-HBCU,Private,Research Universities,"Madison, WI",www.EdgewoodCollegeEagles.com,www.edgewood.edu,43.074761,-89.3837613,211.site.png.png,43.074761,-89.3837613
University of Wisconsin-Platteville,Division III,Division III,Non-DI,Active Member,Wisconsin Intercollegiate Athletic Conference,Wisconsin Intercollegiate Athletic Conference,Non-HBCU,Public,Master's Colleges & Universities,"Platteville, WI",www.letsgopioneers.com,www.uwplatt.edu,42.7342942,-90.4784451,212.thumbnail_default.jpg.jpg,42.7342942,-90.4784451
University of Wisconsin-Oshkosh,Division III,Division III,Non-DI,Active Member,Wisconsin Intercollegiate Athletic Conference,Wisconsin Intercollegiate Athletic Conference,Non-HBCU,Public,Master's Colleges & Universities,"Oshkosh, WI",www.uwosh.edu/,www.uwoshkoshtitans.com,44.0206919,-88.5408574,213.favicon.ico.ico,44.0206919,-88.5408574
Marian University (Wisconsin),Division III,Division III,Non-DI,Active Member,Northern Athletics Collegiate Conference,Northern Athletics Collegiate Conference,Non-HBCU,Private,Master's Colleges & Universities,"Fond Du Lac, WI",www.marianuniversity.edu,www.sabreathletics.com,43.7533414,-88.4493796,214.tr.,43.7533414,-88.4493796
University of Wisconsin-Stevens Point,Division III,Division III,Non-DI,Active Member,Wisconsin Intercollegiate Athletic Conference,Wisconsin Intercollegiate Athletic Conference,Non-HBCU,Public,Master's Colleges & Universities,"Stevens Point, WI",athletics.uwsp.edu,www.uwsp.edu/,44.5229223,-89.574111,,44.5229223,-89.574111
Bethel University (Minnesota),Division III,Division III,Non-DI,Active Member,Minnesota Intercollegiate Athletic Conference,Minnesota Intercollegiate Athletic Conference,Non-HBCU,Private,Research Universities,"St. Paul, MN",athletics.bethel.edu/,www.bethel.edu,44.9504037,-93.1015026,216.favicon.ico.ico,44.9504037,-93.1015026
University of Northwestern-St. Paul,Division III,Division III,Non-DI,Active Member,Upper Midwest Athletic Conference,Upper Midwest Athletic Conference,Non-HBCU,Private,Master's Colleges & Universities,"St. Paul, MN",unweagles.com,www.unwsp.edu,44.9504037,-93.1015026,217.favicon.ico.ico,44.9504037,-93.1015026
North Central University,Division III,Division III,Non-DI,Active Member,Upper Midwest Athletic Conference,Upper Midwest Athletic Conference,Non-HBCU,Private,Baccalaureate Colleges,"Minneapolis, MN",www.ncurams.com,www.northcentral.edu/,44.9772995,-93.2654692,218.site.png.png,44.9772995,-93.2654692
Carleton College,Division III,Division III,Non-DI,Active Member,Minnesota Intercollegiate Athletic Conference,Minnesota Intercollegiate Athletic Conference,Non-HBCU,Private,Baccalaureate Colleges,"Northfield, MN",apps.carleton.edu/athletics/,www.carleton.edu,44.4582041,-93.161159,219.site.png.png,44.4582041,-93.161159
Luther College,Division III,Division III,Non-DI,Active Member,American Rivers Conference,American Rivers Conference,Non-HBCU,Private,Baccalaureate Colleges,"Decorah, IA",sports.luther.edu,www.luther.edu/,43.3033056,-91.7857092,220.686804.jpg.jpg,43.3033056,-91.7857092
Cornell College,Division III,Division III,Non-DI,Active Member,Midwest Conference,Midwest Conference,Non-HBCU,Private,Baccalaureate Colleges,"Mt. Vernon, IA",www.cornellcollege.edu,www.cornellrams.com,41.9222443,-91.4171209,221.favicon.ico.ico,41.9222443,-91.4171209
Coe College,Division III,Division III,Non-DI,Active Member,American Rivers Conference,American Rivers Conference,Non-HBCU,Private,Baccalaureate Colleges,"Cedar Rapids, IA",www.coe.edu,www.coeathletics.com,41.9758872,-91.6704053,222.favicon_a508db1a3ad868c41981b01a5d3c5ad0.png.png,41.9758872,-91.6704053
University of Iowa,Division I,Division I,DI FBS,Active Member,Big Ten Conference,Big Ten Conference,Non-HBCU,Public,Research Universities,"Iowa City, IA",hawkeyesports.com,www.uiowa.edu/,41.6612561,-91.5299106,223.amt-N47foedxrA6LjJMH-c459c42a-09282019_iowa_football_vs_mtsu_sm_082-e1590955165688.jpg.jpg,41.6612561,-91.5299106
Iowa Wesleyan University,Division III,Division III,Non-DI,Active Member,St. Louis Intercollegiate Athletic Conference,St. Louis Intercollegiate Athletic Conference,Non-HBCU,Private,Baccalaureate Colleges,"Mount Pleasant, IA",www.iw.edu,www.iwtigers.com,40.966312,-91.5539956,224.favicon.ico.ico,40.966312,-91.5539956
Grinnell College,Division III,Division III,Non-DI,Active Member,Midwest Conference,Midwest Conference,Non-HBCU,Private,Baccalaureate Colleges,"Grinnell, IA",pioneers.grinnell.edu/,www.grinnell.edu/,41.7430554,-92.7224206,225.site.png.png,41.7430554,-92.7224206
Central College (Iowa),Division III,Division III,Non-DI,Active Member,American Rivers Conference,American Rivers Conference,Non-HBCU,Private,Baccalaureate Colleges,"Pella, IA",www.central.edu,www.central.edu/athletics,41.4080534,-92.9163091,226.cropped-CentralCollege-icon-32x32.png.ico,41.4080534,-92.9163091
Simpson College,Division III,Division III,Non-DI,Active Member,American Rivers Conference,American Rivers Conference,Non-HBCU,Private,Baccalaureate Colleges,"Indianola, IA",www.simpson.edu/,www.simpsonathletics.com/landing/index,41.3605271,-93.5599632,227.favicon-1.ico.ico,41.3605271,-93.5599632
Buena Vista University,Division III,Division III,Non-DI,Active Member,American Rivers Conference,American Rivers Conference,Non-HBCU,Private,Master's Colleges & Universities,"Storm Lake, IA",www.bvu.edu,www.bvuathletics.com,42.6453271,-95.1992916,228.favicon.ico.ico,42.6453271,-95.1992916
Grand Valley State University,Division II,Division II,Non-DI,Active Member,Great Lakes Intercollegiate Athletic Conference,Great Lakes Intercollegiate Athletic Conference,Non-HBCU,Public,Master's Colleges & Universities,"Allendale, MI",gvsulakers.com,www.gvsu.edu,42.9903205,-85.95296849268018,229.favicon.ico.ico,42.9903205,-85.9529685
Baldwin Wallace University,Division III,Division III,Non-DI,Active Member,Ohio Athletic Conference,Ohio Athletic Conference,Non-HBCU,Private,Master's Colleges & Universities,"Berea, OH",www.bw.edu,www.bwyellowjackets.com/landing/index,41.3661614,-81.8543026,,41.3661614,-81.8543026
University of Miami (Florida),Division I,Division I,DI FBS,Active Member,Atlantic Coast Conference,Atlantic Coast Conference,Non-HBCU,Private,Research Universities,"Coral Gables, FL",www.hurricanesports.com,www.miami.edu,25.72149,-80.2683838,231.amt-ZULMQRlM1EutsaCS-d2d49b75-fb-team-intro.jpg.jpg,25.6905515,-80.235009
Palm Beach Atlantic University,Division II,Division II,Non-DI,Active Member,Sunshine State Conference,Sunshine State Conference,Non-HBCU,Private,Research Universities,"West Palm Beach, FL",www.pba.edu,www.pbasailfish.com,26.715364,-80.0532942,232.favicon.ico.ico,26.715364,-80.0532942
Florida Institute of Technology,Division II,Division II,Non-DI,Active Member,Sunshine State Conference,Sunshine State Conference,Non-HBCU,Private,Research Universities,"Melbourne, FL",www.fit.edu,www.floridatechsports.com,28.0836269,-80.6081089,233.favicon.ico.ico,28.0836269,-80.6081089
Embry-Riddle Aeronautical University (Florida),Division II,Division II,Non-DI,Active Member,Sunshine State Conference,Sunshine State Conference,Non-HBCU,Private,Master's Colleges & Universities,"Daytona Beach, FL",www.erau.edu,www.erauathletics.com,29.2108147,-81.0228331,234.favicon.ico.ico,29.2108147,-81.0228331
Bethune-Cookman University,Division I,Division I,DI FCS,Active Member,Mid-Eastern Athletic Conf.,Mid-Eastern Athletic Conf.,HBCU,Private,Baccalaureate Colleges,"Daytona Beach, FL",www.bcuathletics.com,www.cookman.edu,29.2108147,-81.0228331,235.site.png.png,29.2108147,-81.0228331
Flagler College,Division II,Division II,Non-DI,Active Member,Peach Belt Conference,Peach Belt Conference,Non-HBCU,Private,Baccalaureate Colleges,"St. Augustine, FL",www.flagler.edu,www.flaglerathletics.com/,29.8946952,-81.3145395,236.favicon.ico.ico,29.8946952,-81.3145395
University of North Florida,Division I,Division I,DI Subdivision,Active Member,ASUN Conference,ASUN Conference,Non-HBCU,Public,Research Universities,"Jacksonville, FL",www.unf.edu,www.unfospreys.com,30.3321838,-81.655651,237.favicon.ico.ico,30.3321838,-81.655651
Jacksonville University,Division I,Division I,DI FCS,Active Member,ASUN Conference,ASUN Conference,Non-HBCU,Private,Master's Colleges & Universities,"Jacksonville, FL",www.ju.edu,www.judolphins.com,30.3321838,-81.655651,238.favicon.ico.ico,30.3321838,-81.655651
Stetson University,Division I,Division I,DI FCS,Active Member,ASUN Conference,ASUN Conference,Non-HBCU,Private,Master's Colleges & Universities,"DeLand, FL",www.gohatters.com,www.stetson.edu/,29.0283213,-81.3031098,239.favicon.ico.ico,29.0283213,-81.3031098
University of Central Florida,Division I,Division I,DI FBS,Active Member,American Athletic Conference,American Athletic Conference,Non-HBCU,Public,Research Universities,"Orlando, FL",www.ucf.edu,www.ucfknights.com/,28.5421109,-81.3790304,240.favicon.ico.ico,28.5421109,-81.3790304
Rollins College,Division II,Division II,Non-DI,Active Member,Sunshine State Conference,Sunshine State Conference,Non-HBCU,Private,Master's Colleges & Universities,"Winter Park, FL",www.rollins.edu/,www.rollinssports.com,28.5977707,-81.3510264,241.favicon.ico.ico,28.6000625,-81.3427438
Florida Southern College,Division II,Division II,Non-DI,Active Member,Sunshine State Conference,Sunshine State Conference,Non-HBCU,Private,Master's Colleges & Universities,"Lakeland, FL",www.flsouthern.edu,www.fscmocs.com,28.0394654,-81.9498042,242.favicon.ico.ico,28.0394654,-81.9498042
Saint Leo University,Division II,Division II,Non-DI,Active Member,Sunshine State Conference,Sunshine State Conference,Non-HBCU,Private,Master's Colleges & Universities,"Saint Leo, FL",www.saintleo.edu/,www.saintleolions.com,28.3385285,-82.2494869,243.video-image.jpg#keepProtocol.jpg,28.3385285,-82.2494869
University of South Florida,Division I,Division I,DI FBS,Active Member,American Athletic Conference,American Athletic Conference,Non-HBCU,Public,Research Universities,"Tampa, FL",www.gousfbulls.com/,www.usf.edu/,27.9477595,-82.458444,,27.9477595,-82.458444
University of Tampa,Division II,Division II,Non-DI,Active Member,Sunshine State Conference,Sunshine State Conference,Non-HBCU,Private,Master's Colleges & Universities,"Tampa, FL",www.tampaspartans.com,www.ut.edu,27.9477595,-82.458444,245.thumbnail_default.jpg.jpg,27.9477595,-82.458444
Eckerd College,Division II,Division II,Non-DI,Active Member,Sunshine State Conference,Sunshine State Conference,Non-HBCU,Private,Baccalaureate Colleges,"St. Petersburg, FL",www.eckerd.edu/,www.eckerdtritons.com,27.7703796,-82.6695085,246.aerial-curve.jpg.jpg,27.7703796,-82.6695085
University of Florida,Division I,Division I,DI FBS,Active Member,Southeastern Conference,Southeastern Conference,Non-HBCU,Public,Research Universities,"Gainesville, FL",www.floridagators.com,www.ufl.edu,29.6519684,-82.3249846,,29.6519684,-82.3249846
Florida State University,Division I,Division I,DI FBS,Active Member,Atlantic Coast Conference,Atlantic Coast Conference,Non-HBCU,Public,Research Universities,"Tallahassee, FL",www.fsu.edu,www.seminoles.com,30.4380832,-84.2809332,,30.4380832,-84.2809332
Lynn University,Division II,Division II,Non-DI,Active Member,Sunshine State Conference,Sunshine State Conference,Non-HBCU,Private,Master's Colleges & Universities,"Boca Raton, FL",www.lynn.edu,www.lynnfightingknights.com,26.3586885,-80.0830984,249.favicon.ico.ico,26.3586885,-80.0830984
Florida Atlantic University,Division I,Division I,DI FBS,Active Member,Conference USA,Conference USA,Non-HBCU,Public,Research Universities,"Boca Raton, FL",fausports.collegesports.com/,www.fau.edu,26.3586885,-80.0830984,,26.3586885,-80.0830984
Florida International University,Division I,Division I,DI FBS,Active Member,Conference USA,Conference USA,Non-HBCU,Public,Research Universities,"Miami, FL",www.fiu.edu,www.fiusports.com,25.7742658,-80.1936589,251.cover.jpg.jpg,25.7741728,-80.19362
Florida Gulf Coast University,Division I,Division I,DI Subdivision,Active Member,ASUN Conference,ASUN Conference,Non-HBCU,Public,Master's Colleges & Universities,"Fort Myers, FL",www.fgcu.edu,www.fgcuathletics.com,26.640628,-81.8723084,252.apple-touch-icon.png.png,26.640628,-81.8723084
Barry University,Division II,Division II,Non-DI,Active Member,Sunshine State Conference,Sunshine State Conference,Non-HBCU,Private,Research Universities,"Miami Shores, FL",www.GoBarryBucs.com,www.barry.edu,25.8631515,-80.1928253,253.favicon.ico.ico,25.8631515,-80.1928253
Nova Southeastern University,Division II,Division II,Non-DI,Active Member,Sunshine State Conference,Sunshine State Conference,Non-HBCU,Private,Research Universities,"Fort Lauderdale, FL",www.nova.edu,www.nsusharks.com,26.1223084,-80.1433786,254.favicon.ico.ico,26.1223084,-80.1433786
University of Louisiana at Lafayette,Division I,Division I,DI FBS,Active Member,Sun Belt Conference,Sun Belt Conference,Non-HBCU,Public,Research Universities,"Lafayette, LA",www.louisiana.edu/,www.ragincajuns.com,30.2240897,-92.0198427,,30.2240897,-92.0198427
Austin College,Division III,Division III,Non-DI,Active Member,Southern Collegiate Athletic Conference,Southern Collegiate Athletic Conference,Non-HBCU,Private,Baccalaureate Colleges,"Sherman, TX",www.acroos.com,www.austincollege.edu,36.2452294,-101.8858689,256.thumbnail_default.jpg.jpg,36.2452294,-101.8858689
Wichita State University,Division I,Division I,DI Subdivision,Active Member,American Athletic Conference,American Athletic Conference,Non-HBCU,Public,Research Universities,"Wichita, KS",www.goshockers.com,www.wichita.edu,37.6922361,-97.3375448,257.site.png.png,37.6922361,-97.3375448
Newman University,Division II,Division II,Non-DI,Active Member,Mid-America Intercollegiate Athletics Association,Mid-America Intercollegiate Athletics Association,Non-HBCU,Private,Master's Colleges & Universities,"Wichita, KS",www.newmanjets.com,www.newmanu.edu,37.6922361,-97.3375448,258.favicon.ico.ico,37.6922361,-97.3375448
Fort Hays State University,Division II,Division II,Non-DI,Active Member,Mid-America Intercollegiate Athletics Association,Mid-America Intercollegiate Athletics Association,Non-HBCU,Public,Master's Colleges & Universities,"Hays, KS",www.fhsu.edu,www.fhsuathletics.com,38.8791783,-99.3267702,259.favicon.ico.ico,38.8791783,-99.3267702
University of Sioux Falls,Division II,Division II,Non-DI,Active Member,Northern Sun Intercollegiate Conference,Northern Sun Intercollegiate Conference,Non-HBCU,Private,Master's Colleges & Universities,"Sioux Falls, SD",www.usfcougars.com,www.usiouxfalls.edu,43.5499749,-96.700327,260.favicon.ico.ico,43.5499749,-96.700327
"Concordia College, Moorhead",Division III,Division III,Non-DI,Active Member,Minnesota Intercollegiate Athletic Conference,Minnesota Intercollegiate Athletic Conference,Non-HBCU,Private,Baccalaureate Colleges,"Moorhead, MN",www.concordiacollege.edu,www.gocobbers.com,46.8739081,-96.7538674,261.opengraph.jpg.jpg,46.8739081,-96.7538674
North Dakota State University,Division I,Division I,DI FCS,Active Member,The Summit League,The Summit League,Non-HBCU,Public,Research Universities,"Fargo, ND",www.GoBison.com,www.ndsu.edu/,46.877229,-96.789821,,46.877229,-96.789821
Minot State University,Division II,Division II,Non-DI,Active Member,Northern Sun Intercollegiate Conference,Northern Sun Intercollegiate Conference,Non-HBCU,Public,Master's Colleges & Universities,"Minot, ND",www.minotstateu.edu,www.msubeavers.com,48.23251,-101.296273,263.favicon.ico.ico,48.23251,-101.296273
University of Mary,Division II,Division II,Non-DI,Active Member,Northern Sun Intercollegiate Conference,Northern Sun Intercollegiate Conference,Non-HBCU,Private,Research Universities,"Bismarck, ND",www.goumary.com,www.umary.edu/,46.808327,-100.783739,264.favicon.ico.ico,46.808327,-100.783739
Northern State University,Division II,Division II,Non-DI,Active Member,Northern Sun Intercollegiate Conference,Northern Sun Intercollegiate Conference,Non-HBCU,Public,Master's Colleges & Universities,"Aberdeen, SD",nsuwolves.com,www.northern.edu,45.4649805,-98.487813,,45.4649805,-98.487813
South Dakota State University,Division I,Division I,DI FCS,Active Member,The Summit League,The Summit League,Non-HBCU,Public,Research Universities,"Brookings, SD",www.gojacks.com,www.sdstate.edu,44.3763598,-96.7925213,266.site.png.png,44.311461,-96.79844
Wayne State College (Nebraska),Division II,Division II,Non-DI,Active Member,Northern Sun Intercollegiate Conference,Northern Sun Intercollegiate Conference,Non-HBCU,Public,Master's Colleges & Universities,"Wayne, NE",www.wsc.edu/,www.wscwildcats.com/,42.1941294,-97.169623,267.apple-touch-icon.png.png,42.1941294,-97.169623
Nebraska Wesleyan University,Division III,Division III,Non-DI,Active Member,American Rivers Conference,American Rivers Conference,Non-HBCU,Private,Master's Colleges & Universities,"Lincoln, NE",www.NebrWesleyan.edu/athletics,www.nebrwesleyan.edu/,40.8088861,-96.7077751,,40.8088861,-96.7077751
"University of Nebraska, Lincoln",Division I,Division I,DI FBS,Active Member,Big Ten Conference,Big Ten Conference,Non-HBCU,Public,Research Universities,"Lincoln, NE",www.huskers.com,www.unl.edu,40.8088861,-96.7077751,269.favicon.ico.ico,40.8088861,-96.7077751
University of Nebraska Omaha,Division I,Division I,DI Subdivision,Active Member,The Summit League,The Summit League,Non-HBCU,Public,Research Universities,"Omaha, NE",www.omavs.com,www.unomaha.edu/,41.2587459,-95.9383758,270.favicon.ico.ico,41.2587459,-95.9383758
Creighton University,Division I,Division I,DI Subdivision,Active Member,Big East Conference,Big East Conference,Non-HBCU,Private,Research Universities,"Omaha, NE",www.creighton.edu,www.gocreighton.com,41.2587459,-95.9383758,271.cu_favicon_16x16.ico.ico,41.2587459,-95.9383758
Oklahoma State University,Division I,Division I,DI FBS,Active Member,Big 12 Conference,Big 12 Conference,Non-HBCU,Public,Research Universities,"Stillwater, OK",www.okstate.com,www.okstate.edu,36.1156306,-97.0585717,272.site.png.png,36.1156306,-97.0585717
University of Kansas,Division I,Division I,DI FBS,Active Member,Big 12 Conference,Big 12 Conference,Non-HBCU,Public,Research Universities,"Lawrence, KS",www.ku.edu,www.kuathletics.com,38.9719384,-95.2359496,273.social-large.jpg.jpg,38.9719384,-95.2359496
Washburn University of Topeka,Division II,Division II,Non-DI,Active Member,Mid-America Intercollegiate Athletics Association,Mid-America Intercollegiate Athletics Association,Non-HBCU,Public,Research Universities,"Topeka, KS",www.WUSports.com,www.washburn.edu,39.049011,-95.677556,274.site.png.png,39.049011,-95.677556
Kansas State University,Division I,Division I,DI FBS,Active Member,Big 12 Conference,Big 12 Conference,Non-HBCU,Public,Research Universities,"Manhattan, KS",www.k-state.edu/,www.kstatesports.com,39.1836082,-96.5716694,275.favicon.ico.ico,39.1836082,-96.5716694
Emporia State University,Division II,Division II,Non-DI,Active Member,Mid-America Intercollegiate Athletics Association,Mid-America Intercollegiate Athletics Association,Non-HBCU,Public,Master's Colleges & Universities,"Emporia, KS",www.emporia.edu,www.esuhornets.com/,38.4040054,-96.181623,276.favicon-16x16.png.png,38.4040054,-96.181623
Gannon University,Division II,Division II,Non-DI,Active Member,Pennsylvania State Athletic Conference,Pennsylvania State Athletic Conference,Non-HBCU,Private,Research Universities,"Erie, PA",www.gannon.edu,www.gannon.edu/sports,42.1294712,-80.0852695,277.favicon.ico.ico,42.1294712,-80.0852695
Gettysburg College,Division III,Division III,Non-DI,Active Member,Centennial Conference,Centennial Conference,Non-HBCU,Private,Baccalaureate Colleges,"Gettysburg, PA",gettysburgsports.com,www.gettysburg.edu,39.8308973,-77.231012,278.site.png.png,39.8308973,-77.231012
Shippensburg University of Pennsylvania,Division II,Division II,Non-DI,Active Member,Pennsylvania State Athletic Conference,Pennsylvania State Athletic Conference,Non-HBCU,Public,Master's Colleges & Universities,"Shippensburg, PA",www.ship.edu,www.shipraiders.com,40.0562262,-77.5139074,,40.0562262,-77.5139074
Wilson College,Division III,Division III,Non-DI,Active Member,Colonial States Athletic Conference,Colonial States Athletic Conference,Non-HBCU,Private,Master's Colleges & Universities,"Chambersburg, PA",www.wilson.edu,www.wilsonphoenix.com,39.9405903,-77.6598624,280.favicon_0.ico.ico,39.9405903,-77.6598624
Pennsylvania State University,Division I,Division I,DI FBS,Active Member,Big Ten Conference,Big Ten Conference,Non-HBCU,Public,Research Universities,"University Park, PA",goPSUsports.com,www.psu.edu,40.8087493,-77.8585662,281.favicon.ico.ico,40.8087493,-77.8585662
Juniata College,Division III,Division III,Non-DI,Active Member,Landmark Conference,Landmark Conference,Non-HBCU,Private,Baccalaureate Colleges,"Huntingdon, PA",www.juniata.edu/,www.juniatasports.net,40.3446332,-78.0281185,282.favicon.ico.ico,40.3446332,-78.0281185
"Penn State University, Altoona",Division III,Division III,Non-DI,Active Member,Allegheny Mountain Collegiate Conference,Allegheny Mountain Collegiate Conference,Non-HBCU,Public,Baccalaureate Colleges,"Altoona, PA",www.altoona.psu.edu,www.altoona.psu.edu/sports,40.518681,-78.394736,283.favicon.ico.ico,40.518681,-78.394736
Mount Aloysius College,Division III,Division III,Non-DI,Active Member,Allegheny Mountain Collegiate Conference,Allegheny Mountain Collegiate Conference,Non-HBCU,Private,Baccalaureate Colleges,"Cresson, PA",www.mountieathletics.com,www.mtaloy.edu,40.4597938,-78.5916837,284.site.png.png,40.4597938,-78.5916837
"University of Pittsburgh, Johnstown",Division II,Division II,Non-DI,Active Member,Pennsylvania State Athletic Conference,Pennsylvania State Athletic Conference,Non-HBCU,Public,Baccalaureate Colleges,"Johnstown, PA",pittjohnstownathletics.com/,www.upj.pitt.edu,40.3267407,-78.9219698,285.favicon.ico.ico,40.3267407,-78.9219698
Indiana University of Pennsylvania,Division II,Division II,Non-DI,Active Member,Pennsylvania State Athletic Conference,Pennsylvania State Athletic Conference,Non-HBCU,Public,Research Universities,"Indiana, PA",www.iup.edu/,www.iupathletics.com/,40.6424116,-79.1262839,286.favicon.ico.ico,40.6424116,-79.1262839
"University of Pittsburgh, Bradford",Division III,Division III,Non-DI,Active Member,Allegheny Mountain Collegiate Conference,Allegheny Mountain Collegiate Conference,Non-HBCU,Public,Baccalaureate Colleges,"Bradford, PA",www.upb.pitt.edu/,www.upb.pitt.edu/athletics,41.9558963,-78.6439164,287.favicon.ico.ico,41.7746685,-76.5264613
Allegheny College,Division III,Division III,Non-DI,Active Member,North Coast Athletic Conference,North Coast Athletic Conference,Non-HBCU,Private,Baccalaureate Colleges,"Meadville, PA",www.allegheny.edu,www.alleghenygators.com,41.641445,-80.151449,288.favicon.ico.ico,41.641445,-80.151449
Thiel College,Division III,Division III,Non-DI,Active Member,Presidents' Athletic Conference,Presidents' Athletic Conference,Non-HBCU,Private,Baccalaureate Colleges,"Greenville, PA",www.thiel.edu,www.thielathletics.com,31.8295972,-86.6177517,289.favicon.ico.ico,31.8295972,-86.6177517
Westminster College (Pennsylvania),Division III,Division III,Non-DI,Active Member,Presidents' Athletic Conference,Presidents' Athletic Conference,Non-HBCU,Private,Baccalaureate Colleges,"New Wilmington, PA",www.westminster.edu/,www.westminster.edu/athletics/,41.1222812,-80.3328428,290.favicon.ico.ico,41.1222812,-80.3328428
Clarion University of Pennsylvania,Division II,Division II,Non-DI,Active Member,Pennsylvania State Athletic Conference,Pennsylvania State Athletic Conference,Non-HBCU,Public,Master's Colleges & Universities,"Clarion, PA",www.clarion.edu,www.clariongoldeneagles.com/,41.1818771,-79.429169,291.favicon.ico.ico,41.1818771,-79.429169
Grove City College,Division III,Division III,Non-DI,Active Member,Presidents' Athletic Conference,Presidents' Athletic Conference,Non-HBCU,Private,Baccalaureate Colleges,"Grove City, PA",www.gcc.edu,www2.gcc.edu/sports/,41.1579008,-80.0886631,292.favicon2.ico.ico,41.1579008,-80.0886631
Slippery Rock University of Pennsylvania,Division II,Division II,Non-DI,Active Member,Pennsylvania State Athletic Conference,Pennsylvania State Athletic Conference,Non-HBCU,Public,Master's Colleges & Universities,"Slippery Rock, PA",www.rockathletics.com,www.sru.edu/,41.0639506,-80.0564468,,41.0639506,-80.0564468
La Roche University,Division III,Division III,Non-DI,Active Member,Allegheny Mountain Collegiate Conference,Allegheny Mountain Collegiate Conference,Non-HBCU,Private,Master's Colleges & Universities,"Pittsburgh, PA",larochesports.com,www.laroche.edu,40.4416941,-79.9900861,294.thumbnail_default.jpg.jpg,40.4416941,-79.9900861
Chatham University,Division III,Division III,Non-DI,Active Member,Presidents' Athletic Conference,Presidents' Athletic Conference,Non-HBCU,Private,Research Universities,"Pittsburgh, PA",www.chatham.edu,www.gochathamcougars.com,40.4416941,-79.9900861,295.favicon.ico.ico,40.4416941,-79.9900861
University of Pittsburgh,Division I,Division I,DI FBS,Active Member,Atlantic Coast Conference,Atlantic Coast Conference,Non-HBCU,Public,Research Universities,"Pittsburgh, PA",www.pitt.edu,www.pittsburghpanthers.com,40.4416941,-79.9900861,296.favicon.ico.ico,40.4416941,-79.9900861
Seton Hill University,Division II,Division II,Non-DI,Active Member,Pennsylvania State Athletic Conference,Pennsylvania State Athletic Conference,Non-HBCU,Private,Master's Colleges & Universities,"Greensburg, PA",athletics.setonhill.edu/,www.setonhill.edu/,40.3014581,-79.5389289,297.favicon.ico.ico,40.3014581,-79.5389289
"University of Pittsburgh, Greensburg",Division III,Division III,Non-DI,Active Member,Allegheny Mountain Collegiate Conference,Allegheny Mountain Collegiate Conference,Non-HBCU,Public,Baccalaureate Colleges,"Greensburg, PA",pittgreensburgathletics.com/,www.greensburg.pitt.edu/,40.3014581,-79.5389289,298.site.png.png,40.3014581,-79.5389289
Saint Vincent College,Division III,Division III,Non-DI,Active Member,Presidents' Athletic Conference,Presidents' Athletic Conference,Non-HBCU,Private,Baccalaureate Colleges,"Latrobe, PA",athletics.stvincent.edu/,www.stvincent.edu,40.317287,-79.3840301,299.site.png.png,40.317287,-79.3840301
Centenary University (New Jersey),Division III,Division III,Non-DI,Active Member,Colonial States Athletic Conference,Colonial States Athletic Conference,Non-HBCU,Private,Master's Colleges & Universities,"Hackettstown, NJ",www.centenarycollege.edu,www.centenarycyclones.com,40.8539878,-74.8290556,,40.8539878,-74.8290556
Franklin & Marshall College,Division III,Division III,Non-DI,Active Member,Centennial Conference,Centennial Conference,Non-HBCU,Private,Baccalaureate Colleges,"Lancaster, PA",www.fandm.edu,www.godiplomats.com,40.08067,-76.2411283,301.favicon.ico.ico,40.03813,-76.3056686
Shepherd University,Division II,Division II,Non-DI,Active Member,Pennsylvania State Athletic Conference,Pennsylvania State Athletic Conference,Non-HBCU,Public,Baccalaureate Colleges,"Shepherdstown, WV",www.shepherd.edu/,www.shepherdrams.com,39.4300996,-77.804161,302.icon-logo-1024.png.png,39.4300996,-77.804161
Salisbury University,Division III,Division III,Non-DI,Active Member,Capital Athletic Conference Inc.,Capital Athletic Conference Inc.,Non-HBCU,Public,Master's Colleges & Universities,"Salisbury, MD",www.salisbury.edu/,www.salisbury.edu/athletics/,38.3662114,-75.6008881,303.favicon.ico.ico,38.3662114,-75.6008881
Washington College (Maryland),Division III,Division III,Non-DI,Active Member,Centennial Conference,Centennial Conference,Non-HBCU,Private,Baccalaureate Colleges,"Chestertown, MD",www.WashingtonCollegeSports.com,www.washcoll.edu/,39.2089986,-76.0666126,,39.2089986,-76.0666126
Johns Hopkins University,Division III,Division III,Non-DI,Active Member,Centennial Conference,Centennial Conference,Non-HBCU,Private,Research Universities,"Baltimore, MD",www.hopkinssports.com,www.jhu.edu/,39.2908816,-76.610759,305.favicon.ico.ico,39.2908816,-76.610759
Coppin State University,Division I,Division I,DI Subdivision,Active Member,Mid-Eastern Athletic Conf.,Mid-Eastern Athletic Conf.,HBCU,Public,Master's Colleges & Universities,"Baltimore, MD",www.coppin.edu,www.coppinstatesports.com,39.2908816,-76.610759,,39.2908816,-76.610759
"University of Maryland, Baltimore County",Division I,Division I,DI Subdivision,Active Member,America East Conference,America East Conference,Non-HBCU,Public,Research Universities,"Baltimore, MD",UMBCRetrievers.com,www.umbc.edu/,39.2908816,-76.610759,,39.2908816,-76.610759
Towson University,Division I,Division I,DI FCS,Active Member,Colonial Athletic Association,Colonial Athletic Association,Non-HBCU,Public,Research Universities,"Towson, MD",www.towson.edu,www.towsontigers.com,39.4018552,-76.602388,308.towsonu-logo.png.png,39.4018552,-76.602388
Stevenson University,Division III,Division III,Non-DI,Active Member,Middle Atlantic Conferences,Middle Atlantic Conference Commonwealth,Non-HBCU,Private,Master's Colleges & Universities,"Stevenson, MD",www.gomustangsports.com,www.stevenson.edu,39.4102772,-76.7128314,,39.4102772,-76.7128314
McDaniel College,Division III,Division III,Non-DI,Active Member,Centennial Conference,Centennial Conference,Non-HBCU,Private,Master's Colleges & Universities,"Westminster, MD",www.mcdaniel.edu/,www.mcdaniel.edu/athletics,39.5752639,-76.9959277,310.favicon.ico.ico,39.5752639,-76.9959277
Hood College,Division III,Division III,Non-DI,Active Member,Middle Atlantic Conferences,Middle Atlantic Conference Commonwealth,Non-HBCU,Private,Master's Colleges & Universities,"Frederick, MD",www.hood.edu,www.hoodathletics.com,39.4142186,-77.4109269,311.favicon.ico.ico,39.4142186,-77.4109269
Mount St. Mary's University,Division I,Division I,DI Subdivision,Active Member,Northeast Conference,Northeast Conference,Non-HBCU,Private,Master's Colleges & Universities,"Emmitsburg, MD",www.mountathletics.com,www.msmary.edu,39.7045417,-77.3269307,312.site.png.png,39.7045417,-77.3269307
University of Maryland Eastern Shore,Division I,Division I,DI Subdivision,Active Member,Mid-Eastern Athletic Conf.,Mid-Eastern Athletic Conf.,HBCU,Public,Research Universities,"Princess Anne, MD",www.umes.edu,www.umeshawks.com,38.2028428,-75.6920008,313.favicon.ico.ico,38.2028428,-75.6920008
University of Delaware,Division I,Division I,DI FCS,Active Member,Colonial Athletic Association,Colonial Athletic Association,Non-HBCU,Public,Research Universities,"Newark, DE",www.bluehens.com,www.udel.edu,39.6852191,-75.7508289,314.site.png.png,39.6852191,-75.7508289
Wesley College,Division III,Division III,Non-DI,Active Member,Atlantic East Conference,Atlantic East Conference,Non-HBCU,Private,Baccalaureate Colleges,"Dover, DE",www.gowesleyathletics.com,www.wesley.edu,39.158168,-75.5243682,315.thumbnail_default.jpg.jpg,39.158168,-75.5243682
Delaware State University,Division I,Division I,DI FCS,Active Member,Mid-Eastern Athletic Conf.,Mid-Eastern Athletic Conf.,HBCU,Public,Research Universities,"Dover, DE",www.desu.edu,www.dsuhornets.com/,39.158168,-75.5243682,316.favicon.ico.ico,39.158168,-75.5243682
"University of Maryland, College Park",Division I,Division I,DI FBS,Active Member,Big Ten Conference,Big Ten Conference,Non-HBCU,Public,Research Universities,"College Park, MD",www.umd.edu,www.umterps.com,38.980666,-76.9369189,317.UMD_Logo-white.png.png,38.980666,-76.9369189
Gallaudet University,Division III,Division III,Non-DI,Active Member,North Eastern Athletic Conference,North Eastern Athletic Conference,Non-HBCU,Private,Research Universities,"Washington, DC",www.gallaudet.edu,www.gallaudetathletics.com,38.8949855,-77.0365708,318.swoonicon.ico.ico,38.8949855,-77.0365708
Catholic University,Division III,Division III,Non-DI,Active Member,Landmark Conference,Landmark Conference,Non-HBCU,Private,Research Universities,"Washington, DC",www.cua.edu,www.cuacardinals.com,38.8949855,-77.0365708,319.CUA-Logo-Large.png.png,38.8949855,-77.0365708
George Mason University,Division I,Division I,DI Subdivision,Active Member,Atlantic 10 Conference,Atlantic 10 Conference,Non-HBCU,Public,Research Universities,"Fairfax, VA",www.gmu.edu,www.gomason.com,38.8462236,-77.3063733,320.favicon.ico.ico,38.8462236,-77.3063733
Shenandoah University,Division III,Division III,Non-DI,Active Member,Old Dominion Athletic Conf.,Old Dominion Athletic Conf.,Non-HBCU,Private,Research Universities,"Winchester, VA",www.su.edu,www.suhornets.com,39.1852184,-78.1652404,321.Womens-Lacrosse-April-2018-14-1.jpg.jpg,39.1852184,-78.1652404
University of Mary Washington,Division III,Division III,Non-DI,Active Member,Capital Athletic Conference Inc.,Capital Athletic Conference Inc.,Non-HBCU,Public,Master's Colleges & Universities,"Fredericksburg, VA",www.umw.edu/,www.umweagles.com,38.2967927,-77.483409,322.favicon.ico.ico,38.3031837,-77.4605399
George Washington University,Division I,Division I,DI Subdivision,Active Member,Atlantic 10 Conference,Atlantic 10 Conference,Non-HBCU,Private,Research Universities,"Washington, DC",gwsports.collegesports.com,www.gwu.edu/,38.8949855,-77.0365708,,38.8949855,-77.0365708
Georgetown University,Division I,Division I,DI FCS,Active Member,Big East Conference,Big East Conference,Non-HBCU,Private,Research Universities,"Washington, DC",www.georgetown.edu,www.guhoyas.com,38.8949855,-77.0365708,324.w-logo-blue-white-bg.png.ico,38.8949855,-77.0365708
Marymount University (Virginia),Division III,Division III,Non-DI,Active Member,Atlantic East Conference,Atlantic East Conference,Non-HBCU,Private,Master's Colleges & Universities,"Arlington, VA",www.marymount.edu/,www.marymount.edu/athletics,38.8903961,-77.0841585,325.favicon.ico.ico,38.8903961,-77.0841585
Norfolk State University,Division I,Division I,DI FCS,Active Member,Mid-Eastern Athletic Conf.,Mid-Eastern Athletic Conf.,HBCU,Public,Master's Colleges & Universities,"Norfolk, VA",www.nsu.edu,www.nsuspartans.com,36.8462923,-76.2929252,,36.8462923,-76.2929252
St. Mary's College of Maryland,Division III,Division III,Non-DI,Active Member,Capital Athletic Conference Inc.,Capital Athletic Conference Inc.,Non-HBCU,Public,Baccalaureate Colleges,"St. Mary's City, MD",www.smcm.edu/,www.smcmathletics.com,38.18649205,-76.43012002292039,327.favicon.ico.ico,38.186492,-76.43012
Virginia Commonwealth University,Division I,Division I,DI Subdivision,Active Member,Atlantic 10 Conference,Atlantic 10 Conference,Non-HBCU,Public,Research Universities,"Richmond, VA",www.vcu.edu,www.vcuathletics.com/,37.5385087,-77.43428,328.favicon.ico.ico,37.5385087,-77.43428
University of Richmond,Division I,Division I,DI FCS,Active Member,Atlantic 10 Conference,Atlantic 10 Conference,Non-HBCU,Private,Baccalaureate Colleges,"Richmond, VA",www.RichmondSpiders.com/,www.richmond.edu/,37.5385087,-77.43428,,37.5385087,-77.43428
Randolph-Macon College,Division III,Division III,Non-DI,Active Member,Old Dominion Athletic Conf.,Old Dominion Athletic Conf.,Non-HBCU,Private,Baccalaureate Colleges,"Ashland, VA",www.rmc.edu/,www.rmcathletics.com,37.7594012,-77.4806603,330.favicon.ico.ico,37.7594012,-77.4806603
James Madison University,Division I,Division I,DI FCS,Active Member,Colonial Athletic Association,Colonial Athletic Association,Non-HBCU,Public,Master's Colleges & Universities,"Harrisonburg, VA",www.jmu.edu/,www.jmusports.com,38.4493315,-78.8688833,331.favicon.ico.ico,38.4396675,-78.8701365
Bridgewater College (Virginia),Division III,Division III,Non-DI,Active Member,Old Dominion Athletic Conf.,Old Dominion Athletic Conf.,Non-HBCU,Private,Baccalaureate Colleges,"Bridgewater, VA",www.bridgewater.edu,www.bridgewatereagles.com,38.3820655,-78.9766975,332.favicon.ico.ico,38.3820655,-78.9766975
University of Virginia,Division I,Division I,DI FBS,Active Member,Atlantic Coast Conference,Atlantic Coast Conference,Non-HBCU,Public,Research Universities,"Charlottesville, VA",www.virginia.edu/,www.virginiasports.com/,38.029306,-78.4766781,333.favicon.ico.ico,38.029306,-78.4766781
Southern Virginia University,Division III,Division III,Non-DI,Active Member,Capital Athletic Conference Inc.,Capital Athletic Conference Inc.,Non-HBCU,Private,Baccalaureate Colleges,"Buena Vista, VA",athletics.svu.edu/landing/index,www.svu.edu,37.7342962,-79.3539292,,37.7342962,-79.3539292
Washington and Lee University,Division III,Division III,Non-DI,Active Member,Old Dominion Athletic Conf.,Old Dominion Athletic Conf.,Non-HBCU,Private,Baccalaureate Colleges,"Lexington, VA",generalssports.com,www.wlu.edu,37.7802145,-79.44385152471813,335.generalssports.com.,37.7840208,-79.4428157
Virginia Military Institute,Division I,Division I,DI FCS,Active Member,Southern Conference,Southern Conference,Non-HBCU,Public,Baccalaureate Colleges,"Lexington, VA",www.vmi.edu,www.vmikeydets.com,37.7802145,-79.44385152471813,336.homepage_fall.jpg.jpg,37.7840208,-79.4428157
Virginia State University,Division II,Division II,Non-DI,Active Member,Central Intercollegiate Athletic Association,Independent,HBCU,Public,Master's Colleges & Universities,"Petersburg, VA",www.govsutrojans.com,www.vsu.edu/,37.227928,-77.4019268,337.site.png.png,37.1924594,-77.3677408
Longwood University,Division I,Division I,DI Subdivision,Active Member,Big South Conference,Big South Conference,Non-HBCU,Public,Master's Colleges & Universities,"Farmville, VA",www.longwood.edu/,www.longwoodlancers.com,37.3024713,-78.3923813,338.2016-09-02_1811-1337x702.jpg.jpg,37.3024713,-78.3923813
Hampden-Sydney College,Division III,Division III,Non-DI,Active Member,Old Dominion Athletic Conf.,Old Dominion Athletic Conf.,Non-HBCU,Private,Baccalaureate Colleges,"Hampden-Sydney, VA",www.hsc.edu/,www.hscathletics.com,37.241524,-78.47098543404908,339.apple-touch-icon.png.png,37.241524,-78.4709854
Virginia Wesleyan University,Division III,Division III,Non-DI,Active Member,Old Dominion Athletic Conf.,Old Dominion Athletic Conf.,Non-HBCU,Private,Baccalaureate Colleges,"Virginia Beach, VA",vwcathletics.com/landing/index,www.vwc.edu/,36.8529841,-75.9774183,340.vwuathletics.com.,36.8529841,-75.9774183
Old Dominion University,Division I,Division I,DI FBS,Active Member,Conference USA,Conference USA,Non-HBCU,Public,Research Universities,"Norfolk, VA",www.odu.edu,www.odusports.com,36.8462923,-76.2929252,341.image.img.2160.jpg.jpg,36.8462923,-76.2929252
Christopher Newport University,Division III,Division III,Non-DI,Active Member,Capital Athletic Conference Inc.,Capital Athletic Conference Inc.,Non-HBCU,Public,Master's Colleges & Universities,"Newport News, VA",CNUsports.com,www.cnu.edu,36.9786449,-76.4321089,,36.9786449,-76.4321089
